{"pincode": "124525", "data": [{"name": "ProClinica Physiotherapy Clinic, Nagpur", "rating": "4.9", "detail": "Physiotherapy Center", "location": "90 opp. St. Vincent school Uday Nagar, tapasya square, Outer Ring Rd", "open_at": "Reopens at 5:00 pm \u00b7", "phone": "078880 01188"}, {"name": "AESTIQ CLINIC - SKIN, HAIR & LASER CLINIC", "rating": "4.8", "detail": "Dermatologist", "location": "11c, Habibullah Rd", "open_at": "Open until 8:00 pm \u00b7", "phone": "044 4865 3669"}, {"name": "JUSTCALL INFOTEL", "rating": "3.6", "detail": "Advertising service", "location": "Shakti Nagar Ln", "open_at": "None", "phone": "090708 06060"}, {"name": "State Bank Of India", "rating": "3.4", "detail": "Public Sector Bank", "location": "Kathmandi, Lajpath Rai Market", "open_at": "Closing soon: 4:00 pm \u00b7", "phone": "01250 220 651"}, {"name": "State Bank of India", "rating": "3.5", "detail": "Public Sector Bank", "location": "Charkhi Dadri - Rohtak Rd", "open_at": "Closing soon: 4:00 pm", "phone": "None"}, {"name": "Birmingham & Solihull Mental Health NHS Trust", "rating": "4.0", "detail": "Mental Hospital", "location": "1, B1, 50 Summer Hill Rd", "open_at": "Open until 5:00 pm \u00b7", "phone": "+44 121 301 1111"}, {"name": "Zan Mitrev Clinic", "rating": "3.8", "detail": "Medical clinic", "location": "Bledski Dogovor 8", "open_at": "None", "phone": "+389 2 309 1484"}, {"name": "Down Town Dental Clinic", "rating": "4.2", "detail": "Dental clinic", "location": "19A High St", "open_at": "Open until 1:00 pm \u00b7", "phone": "+44 1245 256797"}, {"name": "Akademia Semilac Pozna\u0144", "rating": "4.1", "detail": "Skin care clinic", "location": "Jugos\u0142owia\u0144ska 43", "open_at": "Open until 5:00 pm \u00b7", "phone": "+48 61 861 00 33"}, {"name": "Next Practice Black Rock", "rating": "5.0", "detail": "Medical Center", "location": "29 Bluff Rd", "open_at": "Opens at 9:00 am \u00b7", "phone": "+61 3 8202 3000"}, {"name": "Minagawa Internal Medicine Clinic", "rating": "4.6", "detail": "Internist", "location": "2 Chome-14-1 Kasama", "open_at": "Opens at 9:00 am \u00b7", "phone": "+81 45-897-4340"}, {"name": "Perth Clinic", "rating": "2.8", "detail": "Private hospital", "location": "21-29 Havelock St", "open_at": "Closing soon: 7:00 pm \u00b7", "phone": "+61 8 9481 4888"}, {"name": "Foot Healthcare Org", "rating": "3.7", "detail": "Podiatrist", "location": "70 Woodyleaze Dr", "open_at": "None", "phone": "+44 117 967 5393"}, {"name": "Purapura Whetu Trust", "rating": "3.3", "detail": "Mental health service", "location": "166 St Asaph St", "open_at": "None", "phone": "+64 3-379 8001"}, {"name": "Mitch Abrams Psy D", "rating": "5.0", "detail": "Psychologist", "location": "720 King George Rd # 108", "open_at": "None", "phone": "+1 732-738-0900"}, {"name": "Abrams Psychological Services", "rating": "3.4", "detail": "Psychologist", "location": "620 Tinton Ave #203", "open_at": "Opens at 9:00 am \u00b7", "phone": "+1 732-460-1300"}, {"name": "Inroads to Opportunties (Occupational Center of Union County Inc)", "rating": "4.8", "detail": "Employment center", "location": "301 Cox St", "open_at": "Opens at 8:30 am \u00b7", "phone": "+1 908-241-7200"}, {"name": "Ant\u00f4nio Castilhos", "rating": "3.8", "detail": "Medical clinic", "location": "Av. Alberto Bins, 325", "open_at": "None", "phone": "+55 51 3212-3601"}, {"name": "ProClinica Physiotherapy Clinic, Nagpur", "rating": "4.9", "detail": "Physiotherapy Center", "location": "Nagpur", "open_at": "Reopens at 5:00 pm \u00b7", "phone": "078880 01188"}, {"name": "AESTIQ CLINIC - SKIN, HAIR & LASER CLINIC", "rating": "4.8", "detail": "Dermatologist", "location": "Chennai", "open_at": "Open until 8:00 pm \u00b7", "phone": "044 4865 3669"}, {"name": "JUSTCALL INFOTEL", "rating": "3.6", "detail": "Advertising service", "location": "Jammu", "open_at": "None", "phone": "090708 06060"}, {"name": "State Bank Of India", "rating": "3.4", "detail": "Public Sector Bank", "location": "Charkhi Dadri", "open_at": "Closing soon: 4:00 pm \u00b7", "phone": "01250 220 651"}, {"name": "State Bank of India", "rating": "3.5", "detail": "Public Sector Bank", "location": "Charkhi Dadri", "open_at": "Closing soon: 4:00 pm", "phone": "None"}, {"name": "Birmingham & Solihull Mental Health NHS Trust", "rating": "4.0", "detail": "Mental Hospital", "location": "Birmingham", "open_at": "", "phone": "+64 3-379 8001"}, {"name": "Minagawa Internal Medicine Clinic", "rating": "4.6", "detail": "Internist", "location": "Yokohama", "open_at": "Opens at 9:00 am \u00b7", "phone": "+81 45-897-4340"}, {"name": "Sellers Richard G MD", "rating": "5.0", "detail": "Doctor", "location": "Pensacola", "open_at": "None", "phone": "+1 850-916-9777"}, {"name": "Dr. Vanessa Charette", "rating": "4.8", "detail": "Pediatrician", "location": "Fort Worth", "open_at": "Opens at 8:00 am \u00b7", "phone": "+1 817-336-4896"}, {"name": "Richard Graham Sellers, M.D.", "rating": "4.8", "detail": "Orthopedic surgeon", "location": "Gulf Breeze", "open_at": "Opens at 8:30 am \u00b7", "phone": "+1 850-916-9777"}, {"name": "Esther Chan, NP", "rating": "None", "detail": "Doctor", "location": "Daly City", "open_at": "None", "phone": "+1 650-991-8883"}, {"name": "Saskatchewan Health Authority", "rating": "2.1", "detail": "Hospital", "location": "Saskatoon", "open_at": "None", "phone": "+1 306-655-0080"}, {"name": "The Hospital for Sick Children", "rating": "2.8", "detail": "Children's hospital", "location": "Toronto", "open_at": "None", "phone": "+1 416-813-1500"}, {"name": "Erie County Medical Center", "rating": "3.1", "detail": "Medical Center", "location": "Buffalo", "open_at": "None", "phone": "+1 716-898-3000"}, {"name": "University of Illinois Hospital & Health Sciences System", "rating": "None", "detail": "University hospital", "location": "Chicago", "open_at": "None", "phone": "+1 866-600-2273"}, {"name": "Pullman Regional Hospital", "rating": "4.6", "detail": "Hospital", "location": "Pullman", "open_at": "None", "phone": "+1 509-332-2541"}, {"name": "Multnomah County Health Department Harm Reduction Clinic", "rating": "5.0", "detail": "Public health department", "location": "Portland", "open_at": "None", "phone": "+1 503-988-0577"}, {"name": "University of S\u00e3o Paulo, Bauru Campus", "rating": "4.0", "detail": "Public university", "location": "Bauru", "open_at": "None", "phone": "+55 14 3235-8386"}, {"name": "Ant\u00f4nio Castilhos", "rating": "3.4", "detail": "Medical clinic", "location": "Porto Alegre", "open_at": "None", "phone": "+55 51 3212-3601"}, {"name": "Mitch Abrams Psy D", "rating": "None", "detail": "Psychologist", "location": "Fords", "open_at": "None", "phone": "+1 732-738-0900"}, {"name": "Abrams Psychological Services", "rating": "3.3", "detail": "Psychologist", "location": "Tinton Falls", "open_at": "Opens at 9:00 am \u00b7", "phone": "+1 732-460-1300"}, {"name": "Inroads to Opportunties (Occupational Center of Union County Inc)", "rating": "4.9", "detail": "Store", "location": "None", "open_at": "Opens at 8:00 am \u00b7", "phone": "+506 2281 2827"}, {"name": "Inroads to Opportunties (Occupational Center of Union County Inc)", "rating": "None", "detail": "None", "location": "None", "open_at": "None", "phone": "None"}, {"name": "Inroads to Opportunties (Occupational Center of Union County Inc)", "rating": "None", "detail": "None", "location": "None", "open_at": "None", "phone": "None"}, {"name": "Inroads to Opportunties (Occupational Center of Union County Inc)", "rating": "None", "detail": "None", "location": "None", "open_at": "None", "phone": "None"}, {"name": "Inroads to Opportunties (Occupational Center of Union County Inc)", "rating": "None", "detail": "None", "location": "None", "open_at": "None", "phone": "None"}, {"name": "Inroads to Opportunties (Occupational Center of Union County Inc)", "rating": "None", "detail": "None", "location": "None", "open_at": "None", "phone": "None"}, {"name": "Inroads to Opportunties (Occupational Center of Union County Inc)", "rating": "None", "detail": "None", "location": "None", "open_at": "None", "phone": "None"}, {"name": "Inroads to Opportunties (Occupational Center of Union County Inc)", "rating": "None", "detail": "None", "location": "None", "open_at": "None", "phone": "None"}, {"name": "Inroads to Opportunties (Occupational Center of Union County Inc)", "rating": "None", "detail": "None", "location": "None", "open_at": "None", "phone": "None"}, {"name": "Inroads to Opportunties (Occupational Center of Union County Inc)", "rating": "None", "detail": "None", "location": "None", "open_at": "None", "phone": "None"}, {"name": "Inroads to Opportunties (Occupational Center of Union County Inc)", "rating": "None", "detail": "None", "location": "None", "open_at": "None", "phone": "None"}, {"name": "Inroads to Opportunties (Occupational Center of Union County Inc)", "rating": "None", "detail": "None", "location": "None", "open_at": "None", "phone": "None"}, {"name": "Inroads to Opportunties (Occupational Center of Union County Inc)", "rating": "None", "detail": "None", "location": "None", "open_at": "None", "phone": "None"}, {"name": "Inroads to Opportunties (Occupational Center of Union County Inc)", "rating": "None", "detail": "None", "location": "None", "open_at": "None", "phone": "None"}, {"name": "Inroads to Opportunties (Occupational Center of Union County Inc)", "rating": "None", "detail": "None", "location": "None", "open_at": "None", "phone": "None"}, {"name": "Inroads to Opportunties (Occupational Center of Union County Inc)", "rating": "None", "detail": "None", "location": "None", "open_at": "None", "phone": "None"}, {"name": "Inroads to Opportunties (Occupational Center of Union County Inc)", "rating": "None", "detail": "None", "location": "None", "open_at": "None", "phone": "None"}]}