{"pincode": "124513", "data": [{"name": "Dental Health Clinic", "rating": "4.0", "detail": "Dental clinic", "location": "Dental Health Clinic", "open_at": "None", "phone": "None"}, {"name": "Metropolis Healthcare Ltd", "rating": "5.0", "detail": "Diagnostic center", "location": "Premashray,239 Sector 5, Sheetla Mata Road", "open_at": "Open until 8:00 pm \u00b7", "phone": "022 3399 3939"}, {"name": "Nehra Clinic", "rating": "4.7", "detail": "Medical clinic", "location": "Thana Road, opposite State bank of India", "open_at": "None", "phone": "None"}, {"name": "Sharda Clinic & Nursing Home", "rating": "4.0", "detail": "Medical clinic", "location": "ward No. 6,Thana Road,Meham,Rohtak", "open_at": "Reopens at 4:00 pm \u00b7", "phone": "01257 233 056"}, {"name": "Dr. Khan Orthopedics Specielist", "rating": "4.8", "detail": "Orthopedic clinic", "location": "None", "open_at": "Open until 5:00 pm", "phone": "None"}, {"name": "City Ultrasound", "rating": "5.0", "detail": "Medical clinic", "location": "1st Street on Bahalba Road Kishangarh Maham, SH 16A", "open_at": "None", "phone": "None"}, {"name": "NEW DENTAL CLINIC", "rating": "5.0", "detail": "Medical clinic", "location": "Gohana-Meham Rd", "open_at": "Open until 6:00 pm", "phone": "None"}, {"name": "Piles Bawaseer", "rating": "5.0", "detail": "Medical clinic", "location": "Halifax, no 1", "open_at": "None", "phone": "None"}, {"name": "anirudha hospital", "rating": "3.0", "detail": "Medical clinic", "location": "Bhiwani Stand, Meham ,Rohtak Haryana", "open_at": "None", "phone": "094161 85281"}, {"name": "Bhar Clinic", "rating": "5.0", "detail": "Medical clinic", "location": "None", "open_at": "Open until 10:00 pm", "phone": "None"}, {"name": "Eye Vision Optical", "rating": "5.0", "detail": "Eye care center", "location": "None", "open_at": "Open until 8:00 pm", "phone": "None"}, {"name": "Sharma Clinic,Singhwa", "rating": "5.0", "detail": "Medical clinic", "location": "Girl school", "open_at": "None", "phone": "None"}, {"name": "Tagra Dental Clinic", "rating": "5.0", "detail": "Dental clinic", "location": "None", "open_at": "None", "phone": "099962 33396"}, {"name": "Dental Health Clinic", "rating": "4.0", "detail": "Dental clinic", "location": "Dental Health Clinic", "open_at": "None", "phone": "None"}, {"name": "Metropolis Healthcare Ltd", "rating": "5.0", "detail": "Diagnostic center", "location": "Premashray,239 Sector 5, Sheetla Mata Road", "open_at": "Open until 8:00 pm \u00b7", "phone": "022 3399 3939"}, {"name": "Nehra Clinic", "rating": "4.7", "detail": "Medical clinic", "location": "Thana Road, opposite State bank of India", "open_at": "None", "phone": "None"}, {"name": "Sharda Clinic & Nursing Home", "rating": "4.0", "detail": "Medical clinic", "location": "ward No. 6,Thana Road,Meham,Rohtak", "open_at": "Reopens at 4:00 pm \u00b7", "phone": "01257 233 056"}, {"name": "Dr. Khan Orthopedics Specielist", "rating": "4.8", "detail": "Orthopedic clinic", "location": "None", "open_at": "Open until 5:00 pm", "phone": "None"}, {"name": "City Ultrasound", "rating": "5.0", "detail": "Medical clinic", "location": "1st Street on Bahalba Road Kishangarh Maham, SH 16A", "open_at": "None", "phone": "None"}, {"name": "NEW DENTAL CLINIC", "rating": "5.0", "detail": "Physiotherapy Center", "location": "None", "open_at": "None", "phone": "094166 32667"}, {"name": "Uttam clinic Dr. Satish", "rating": "4.5", "detail": "Doctor", "location": "Basana Rd", "open_at": "Open until 10:00 pm \u00b7", "phone": "01258 222 466"}, {"name": "Bhagwati Electric Store", "rating": "5.0", "detail": "Fertility clinic", "location": "Old Grain Market Bounding Road", "open_at": "None", "phone": "None"}, {"name": "Verma Dental Vlinic", "rating": "None", "detail": "Dental clinic", "location": "Nandal Rd", "open_at": "None", "phone": "None"}, {"name": "Dr Lal PathLabs", "rating": "4.3", "detail": "Diagnostic center", "location": "opp. Police Station", "open_at": "Open until 7:30 pm \u00b7", "phone": "094666 54014"}, {"name": "Kaushik Clinic", "rating": "4.5", "detail": "Medical clinic", "location": "None", "open_at": "None", "phone": "None"}, {"name": "Pandit Palaram Vaidh", "rating": "None", "detail": "Medical clinic", "location": "NH 10", "open_at": "Open until 5:00 pm \u00b7", "phone": "099924 86041"}, {"name": "Shri Balaji Diagnostic Centre,Meham", "rating": "4.3", "detail": "Diagnostic center", "location": "Meham", "open_at": "Open until 7:00 pm \u00b7", "phone": "01257 233 600"}, {"name": "Adv SuryaParkash Singh", "rating": "5.0", "detail": "Legal services", "location": "Julana", "open_at": "Open until 7:00 pm", "phone": "None"}, {"name": "Goyat Dental Care", "rating": "5.0", "detail": "Dental clinic", "location": "None", "open_at": "Open until 9:00 pm", "phone": "None"}, {"name": "Dr Rajesh Sharma", "rating": "None", "detail": "Medical clinic", "location": "None", "open_at": "None", "phone": "None"}, {"name": "Dr Lal PathLabs", "rating": "5.0", "detail": "Diagnostic center", "location": "Meham", "open_at": "Open until 7:30 pm \u00b7", "phone": "097280 13654"}, {"name": "Metropolis Healthcare Ltd", "rating": "5.0", "detail": "Diagnostic center", "location": "Haryana", "open_at": "Open until 8:00 pm \u00b7", "phone": "022 3399 3939"}, {"name": "Mudgil Physiotherapy Clinic", "rating": "4.6", "detail": "Physiotherapy Center", "location": "None", "open_at": "None", "phone": "094166 32667"}, {"name": "Uttam clinic Dr. Satish", "rating": "None", "detail": "Doctor", "location": "Kalanaur", "open_at": "Open until 10:00 pm \u00b7", "phone": "01258 222 466"}, {"name": "Bhagwati Electric Store", "rating": "3.3", "detail": "Fertility clinic", "location": "Julana", "open_at": "None", "phone": "None"}, {"name": "Verma Dental Vlinic", "rating": "4.5", "detail": "Dental clinic", "location": "Lakhan Majra", "open_at": "None", "phone": "None"}, {"name": "Dr Lal PathLabs", "rating": "5.0", "detail": "Diagnostic center", "location": "Julana", "open_at": "Open until 7:30 pm \u00b7", "phone": "094666 54014"}, {"name": "Kaushik Clinic", "rating": "None", "detail": "Medical clinic", "location": "None", "open_at": "None", "phone": "None"}, {"name": "Pandit Palaram Vaidh", "rating": "4.3", "detail": "Medical clinic", "location": "Sorkhi", "open_at": "Open until 5:00 pm \u00b7", "phone": "099924 86041"}, {"name": "DR. HARIPAL CLINIC", "rating": "", "detail": "Women's health clinic", "location": "Charkhi Dadri", "open_at": "Open until 12:00 am \u00b7", "phone": "098132 40398"}, {"name": "Armaan Dental Hospital", "rating": "None", "detail": "Dental clinic", "location": "Bhiwani", "open_at": "None", "phone": "096715 57262"}, {"name": "Vashisht Clinic", "rating": "5.0", "detail": "Doctor", "location": "None", "open_at": "None", "phone": "None"}, {"name": "Jiwan Clinic & Nursing Home", "rating": "5.0", "detail": "Medical clinic", "location": "Rohtak", "open_at": "None", "phone": "094160 53316"}, {"name": "Drparveen Sehrawat Clinic", "rating": "5.0", "detail": "Hospital", "location": "None", "open_at": "Open until 6:00 pm", "phone": "None"}, {"name": "Shaadi Sangam Marriage Bureau - Marriage Bureau In Ambala", "rating": "None", "detail": "Marriage Consultant", "location": "Ambala Cantt", "open_at": "None", "phone": "None"}, {"name": "Gramin HealthCare", "rating": "5.0", "detail": "Medical Center", "location": "Rohtak", "open_at": "Open until 5:30 pm", "phone": "None"}, {"name": "Weltgeist School", "rating": "4.6", "detail": "School", "location": "", "open_at": "Open until 5:00 pm \u00b7", "phone": "01257 233 068"}, {"name": "Sachin Dog Clinic Meham", "rating": "2.5", "detail": "Dog care", "location": "Meham", "open_at": "None", "phone": "082220 55800"}, {"name": "Hospital", "rating": "5.0", "detail": "Hospital", "location": "None", "open_at": "None", "phone": "None"}, {"name": "Ch. Mirsingh Bedh", "rating": "None", "detail": "Alternative Medicine Clinic", "location": "Vpo", "open_at": "None", "phone": "None"}, {"name": "City Hospital", "rating": "4.2", "detail": "Hospital", "location": "Meham", "open_at": "Open until 10:30 pm \u00b7", "phone": "099911 66370"}, {"name": "Ch. Mirsingh Bedh", "rating": "None", "detail": "Alternative Medicine Clinic", "location": "None", "open_at": "None", "phone": "None"}, {"name": "Spes Hospital", "rating": "2.5", "detail": "Hospital", "location": "Meham", "open_at": "None", "phone": "None"}, {"name": "Jeevan Jyoti Hospital", "rating": "3.8", "detail": "Hospital", "location": "Meham", "open_at": "None", "phone": "090681 48080"}, {"name": "Govt.VD, Kilazafargarh", "rating": "None", "detail": "Hospital", "location": "None", "open_at": "Opens at 8:00 am", "phone": "None"}, {"name": "General Civil Hospital", "rating": "5.0", "detail": "Hospital", "location": "Meham", "open_at": "Opens at 9:00 am", "phone": "None"}, {"name": "ECHS POLYCLINIC MEHAM", "rating": "4.8", "detail": "Hospital", "location": "None", "open_at": "None", "phone": "None"}, {"name": "Suman Hospital", "rating": "4.0", "detail": "Hospital", "location": "None", "open_at": "None", "phone": "094161 59150"}, {"name": "Arora Dental and Optical Clinic", "rating": "3.8", "detail": "Optician", "location": "Julana", "open_at": "Open until 7:00 pm \u00b7", "phone": "092554 26316"}, {"name": "Dr Saty Singh Rathee", "rating": "None", "detail": "Doctor", "location": "Lakhan Majra", "open_at": "None", "phone": "081689 47235"}, {"name": "June Hospital and Meternity Centre", "rating": "None", "detail": "Hospital", "location": "Meham", "open_at": "None", "phone": "093541 96597"}, {"name": "Chadha Hospital Julana", "rating": "4.4", "detail": "Hospital", "location": "Julana", "open_at": "Open until 5:30 pm \u00b7", "phone": "092555 84046"}, {"name": "Jiwan Clinic and Nursing Home", "rating": "None", "detail": "Nursing home", "location": "Meham", "open_at": "None", "phone": "None"}, {"name": "Animal Hospital", "rating": "4.5", "detail": "Hospital", "location": "None", "open_at": "Open until 5:00 pm", "phone": "None"}, {"name": "Shri Shivanand Charitable Hospital Kheri Meham", "rating": "4.8", "detail": "Hospital", "location": "None", "open_at": "Open until 5:00 pm \u00b7", "phone": "01257 233 068"}, {"name": "Sachin Dog Clinic Meham", "rating": "2.5", "detail": "Dog care", "location": "Meham", "open_at": "None", "phone": "082220 55800"}, {"name": "Hospital", "rating": "5.0", "detail": "Hospital", "location": "None", "open_at": "None", "phone": "None"}, {"name": "Ch. Mirsingh Bedh", "rating": "None", "detail": "Alternative Medicine Clinic", "location": "Vpo", "open_at": "None", "phone": "None"}, {"name": "City Hospital", "rating": "4.2", "detail": "Hospital", "location": "Meham", "open_at": "Open until 10:30 pm \u00b7", "phone": "099911 66370"}, {"name": "Ch. Mirsingh Bedh", "rating": "None", "detail": "Alternative Medicine Clinic", "location": "None", "open_at": "None", "phone": "None"}, {"name": "Spes Hospital", "rating": "2.5", "detail": "Hospital", "location": "Meham", "open_at": "None", "phone": "None"}, {"name": "Jeevan Jyoti Hospital", "rating": "3.8", "detail": "Hospital", "location": "Meham", "open_at": "None", "phone": "090681 48080"}, {"name": "Sanjay Nursing Home & Ultrasound", "rating": "5.0", "detail": "Hospital", "location": "Julana", "open_at": "Open until 5:00 pm", "phone": "None"}, {"name": "Shri Lala Lalchand Hospital - Opp. Badluram market, Main bazar Julana", "rating": "5.0", "detail": "Hospital", "location": "Julana", "open_at": "None", "phone": "0168 327 4705"}, {"name": "Chugh Multispeciality Hospital", "rating": "3.4", "detail": "Hospital", "location": "Bhiwani", "open_at": "Open until 7:00 pm", "phone": "None"}, {"name": "Delivery Hut", "rating": "4.0", "detail": "Hospital", "location": "None", "open_at": "Open until 5:00 pm", "phone": "None"}, {"name": "Jagdambe Dantal Hospital,Meham", "rating": "5.0", "detail": "Teeth whitening service", "location": "None", "open_at": "None", "phone": "098131 33596"}, {"name": "Bharat ENT Hospital", "rating": "2.8", "detail": "Hospital", "location": "Bhiwani", "open_at": "Reopens at 5:30 pm \u00b7", "phone": "074199 52402"}, {"name": "Animal's Hospital", "rating": "4.0", "detail": "Hospital", "location": "None", "open_at": "None", "phone": "None"}, {"name": "Sharda Hospital", "rating": "5.0", "detail": "Hospital", "location": "Meham", "open_at": "Open until 7:00 pm", "phone": "None"}, {"name": "Dr. Bantu Harhwala", "rating": "5.0", "detail": "Hospital", "location": "None", "open_at": "None", "phone": "094166 63370"}, {"name": "Ram Gopal Hospital", "rating": "4.6", "detail": "Hospital", "location": "Meham", "open_at": "None", "phone": "098123 33284"}, {"name": "Dr O P Chitkara", "rating": "None", "detail": "Hospital", "location": "Meham", "open_at": "None", "phone": "094160 77476"}, {"name": "New Age Rehab (Uday Park) - Physiotherapy Clinic", "rating": "5.0", "detail": "Physiotherapy Center", "location": "New Delhi", "open_at": "Open until 8:00 pm \u00b7", "phone": "011 4160 5151"}, {"name": "DOCTORSCELL.COM", "rating": "5.0", "detail": "Medical clinic", "location": "Delhi", "open_at": "Open until 10:30 pm \u00b7", "phone": "085060 00078"}, {"name": "Janral Hospital", "rating": "None", "detail": "Hospital", "location": "Gurugram", "open_at": "Open until 5:30 pm \u00b7", "phone": "0124 400 9200"}, {"name": "Shiv Sakti medicose", "rating": "None", "detail": "Alternative Medicine Clinic", "location": "None", "open_at": "Open until 8:30 pm", "phone": "None"}, {"name": "KRV Healthcare & Physiotherapy(Only Home Visit)", "rating": "4.8", "detail": "Physiotherapist", "location": "New Delhi", "open_at": "Open until 8:00 pm \u00b7", "phone": "099999 98934"}, {"name": "MR JOB IN EMCURE", "rating": "None", "detail": "None", "location": "Meham", "open_at": "None", "phone": "098024 02525"}, {"name": "Panwar Hospital", "rating": "3.4", "detail": "Hospital", "location": "Bhiwani", "open_at": "Reopens at 5:00 pm \u00b7", "phone": "082950 25910"}, {"name": "Visible Change", "rating": "3.9", "detail": "Beauty Parlour", "location": "New Delhi", "open_at": "Open until 10:00 pm \u00b7", "phone": "099108 79562"}, {"name": "MG Beauty Salon", "rating": "4.3", "detail": "Make-up artist", "location": "New Delhi", "open_at": "Open until 8:00 pm", "phone": "None"}, {"name": "ProdCoMS LLP", "rating": "5.0", "detail": "Human resource consulting", "location": "Gurugram", "open_at": "Open until 8:00 pm \u00b7", "phone": "099100 29744"}, {"name": "C.H.C Sorkhi City", "rating": "4.3", "detail": "Government hospital", "location": "None", "open_at": "None", "phone": "None"}, {"name": "My Sonea - Matri Portal \u092e\u0947\u0930\u0947 \u0938\u094b\u0928\u093f\u092f\u093e - \u0936\u093e\u0926\u0940 \u092a\u094b\u0930\u094d\u091f\u0932", "rating": "3.7", "detail": "E - Commerce Agency", "location": "Gurugram", "open_at": "None", "phone": "None"}, {"name": "Holy Heart Hospital", "rating": "3.8", "detail": "Heart hospital", "location": "Rohtak", "open_at": "None", "phone": "01262 262 292"}, {"name": "Shaadiplatform.com", "rating": "5.0", "detail": "Wedding service", "location": "New Delhi", "open_at": "None", "phone": "098116 25836"}, {"name": "Sanjay Medical Store, Rohtak Road, Lakhan Majra", "rating": "5.0", "detail": "Pharmacy", "location": "Lakhan Majra", "open_at": "Open until 7:00 pm \u00b7", "phone": "080595 62477"}, {"name": "Civil Hospital Kalanaur", "rating": "3.1", "detail": "Hospital", "location": "Kalanaur", "open_at": "None", "phone": "01258 222 553"}, {"name": "Kaushik Medical Hall", "rating": "5.0", "detail": "Alternative Medicine Clinic", "location": "None", "open_at": "None", "phone": "None"}, {"name": "Aastha Hospital & Godsend IVF Centre/ Best IVF Centre/ Best Hospital West Delhi", "rating": "4.6", "detail": "Obstetrician-gynecologist", "location": "New Delhi", "open_at": "None", "phone": "092509 13363"}, {"name": "Baba Band -: Band In Delhi / Best Band In Delhi / Wedding Band In Delhi / Faridabad,Gurgaon", "rating": "4.5", "detail": "Band", "location": "Delhi", "open_at": "None", "phone": "None"}, {"name": "Meditation Classes at Your Place!", "rating": "4.3", "detail": "Meditation Class", "location": "New Delhi", "open_at": "Open until 6:00 pm \u00b7", "phone": "088020 20915"}, {"name": "Shri Krishan Dhaam Goushala & Ayurvedic Hospital . Jai Jai wanti", "rating": "4.0", "detail": "Hospital", "location": "None", "open_at": "None", "phone": "083989 09832"}, {"name": "Lumbricals.com (Physiotherapy At Home)", "rating": "5.0", "detail": "Physiotherapist", "location": "Delhi", "open_at": "Open until 8:00 pm \u00b7", "phone": "099101 60867"}, {"name": "Gramin Healthcare HQ", "rating": "4.7", "detail": "Medical group", "location": "Gurugram", "open_at": "Open until 5:30 pm \u00b7", "phone": "0124 400 9200"}, {"name": "Shiv Sakti medicose", "rating": "4.1", "detail": "General hospital", "location": "Rohtak", "open_at": "Opens at 9:00 am", "phone": "None"}, {"name": "Surgical masks ( Face Mask/Disposable Masks ) - Wholesalers/Manufacturer", "rating": "5.0", "detail": "Delivery service", "location": "None", "open_at": "None", "phone": "None"}, {"name": "J B Gupta Hospital", "rating": "3.4", "detail": "General hospital", "location": "Bhiwani", "open_at": "None", "phone": "092153 76262"}, {"name": "Pawan Children's Hospital", "rating": "4.7", "detail": "Hospital", "location": "Kalanaur", "open_at": "Open until 5:30 pm \u00b7", "phone": "01258 222 776"}, {"name": "Ranvir Hospital", "rating": "4.3", "detail": "Hospital", "location": "Bhiwani", "open_at": "None", "phone": "0166 425 1010"}, {"name": "Government Veterinary hospital", "rating": "5.0", "detail": "Animal hospital", "location": "None", "open_at": "None", "phone": "093556 10657"}, {"name": "Dixit Skin Care Hospital", "rating": "3.8", "detail": "Hospital", "location": "Bhiwani", "open_at": "Reopens at 5:30 pm \u00b7", "phone": "0166 424 6488"}, {"name": "Dhir Hospital", "rating": "4.4", "detail": "Hospital", "location": "Bhiwani", "open_at": "Open until 6:30 pm \u00b7", "phone": "072067 99506"}, {"name": "SPES MULTI specialty hospital bhiwani", "rating": "3.6", "detail": "Hospital", "location": "Bhiwani", "open_at": "None", "phone": "None"}, {"name": "GSK Kharkara", "rating": "4.1", "detail": "Shopping mall", "location": "None", "open_at": "None", "phone": "074041 21929"}, {"name": "Haryana Yog Naturopathy Hospital", "rating": "4.2", "detail": "Hospital", "location": "Bhiwani", "open_at": "Reopens at 4:00 pm \u00b7", "phone": "092543 42660"}, {"name": "GREWAL HOSPITAL", "rating": "5.0", "detail": "Hospital", "location": "Bhiwani", "open_at": "None", "phone": "None"}, {"name": "Spes Hospital", "rating": "3.0", "detail": "Hospital", "location": "None", "open_at": "None", "phone": "None"}, {"name": "Verma Ultrasound", "rating": "3.7", "detail": "Laboratory", "location": "None", "open_at": "None", "phone": "099917 53858"}, {"name": "Harsh Hospital", "rating": "4.1", "detail": "Hospital", "location": "None", "open_at": "None", "phone": "None"}, {"name": "Diet Solutions", "rating": "4.9", "detail": "Nutritionist", "location": "None", "open_at": "Reopens at 5:00 pm \u00b7", "phone": "098185 13663"}, {"name": "Siashmed", "rating": "4.4", "detail": "Health consultant", "location": "Noida", "open_at": "None", "phone": "None"}, {"name": "Touch-on Sehat Home Care\u00ae", "rating": "4.9", "detail": "Home health care service", "location": "Noida", "open_at": "None", "phone": "083580 01429"}, {"name": "Phyzicia Home Health Care Services", "rating": "5.0", "detail": "Hospital", "location": "Rohtak", "open_at": "None", "phone": "None"}, {"name": "Be Gorgeous", "rating": "4.6", "detail": "Hair extensions supplier", "location": "New Delhi", "open_at": "Open until 8:00 pm \u00b7", "phone": "096549 95799"}, {"name": "PGIMS New OPD", "rating": "4.1", "detail": "General hospital", "location": "Rohtak", "open_at": "Reopens at 5:00 pm \u00b7", "phone": "0166 424 1224"}, {"name": "Inderjeet Hospital", "rating": "5.0", "detail": "Hospital", "location": "Bhiwani", "open_at": "None", "phone": "094671 36400"}, {"name": "Dhamija Chest Hospital", "rating": "4.6", "detail": "Hospital", "location": "Bhiwani", "open_at": "None", "phone": "098120 30447"}, {"name": "Ch. Bansilal Government Hospital", "rating": "3.8", "detail": "Government hospital", "location": "Bhiwani", "open_at": "Opens at 9:00 am", "phone": "None"}, {"name": "Aastha Hospital", "rating": "4.6", "detail": "Private hospital", "location": "Bhiwani", "open_at": "None", "phone": "082219 13343"}, {"name": "Kaddam Multispeciality Hospital", "rating": "4.0", "detail": "Hospital", "location": "Bhiwani", "open_at": "None", "phone": "095188 09328"}, {"name": "Anchal Maternity And Nursing Home", "rating": "3.8", "detail": "Hospital", "location": "Bhiwani", "open_at": "None", "phone": "094161 26233"}, {"name": "N.K. Garg Children Hospital", "rating": "3.4", "detail": "Hospital", "location": "Dinod", "open_at": "Open until 5:00 pm \u00b7", "phone": "0166 424 2336"}, {"name": "Nandal", "rating": "None", "detail": "None", "location": "None", "open_at": "None", "phone": "None"}, {"name": "BJP Office", "rating": "None", "detail": "Customs office", "location": "None", "open_at": "None", "phone": "None"}, {"name": "Red Cross", "rating": "4.2", "detail": "Fast Food", "location": "Meham", "open_at": "Open until 11:00 pm", "phone": "None"}, {"name": "herbalife", "rating": "5.0", "detail": "Weight loss service", "location": "jind", "open_at": "None", "phone": "082854 21919"}, {"name": "Patanjali Chikitsalaya", "rating": "1.0", "detail": "Alternative medicine practitioner", "location": "Hudd Market", "open_at": "Open until 5:00 pm \u00b7", "phone": "098116 93737"}, {"name": "State Bank of India", "rating": "5.0", "detail": "Public Sector Bank", "location": "Rohtak", "open_at": "Open until 5:00 pm", "phone": "None"}, {"name": "Punia maternity &Orthopaedics hospital(Dr. Suman Punia)", "rating": "3.0", "detail": "Hospital", "location": "Bhiwani", "open_at": "None", "phone": "None"}, {"name": "Gulia Nursing Home", "rating": "3.5", "detail": "Maternity Centre", "location": "Bhiwani", "open_at": "Reopens at 5:00 pm \u00b7", "phone": "0166 424 1239"}, {"name": "Thyrocare Collection Centre", "rating": "None", "detail": "Medical laboratory", "location": "Meham", "open_at": "Open until 7:00 pm", "phone": "None"}, {"name": "Girdhar Hospital", "rating": "3.0", "detail": "Hospital", "location": "Bhiwani", "open_at": "None", "phone": "0166 425 5113"}, {"name": "Punia Hospital", "rating": "2.6", "detail": "Hospital", "location": "None", "open_at": "Open until 5:00 pm", "phone": "None"}, {"name": "Punia Hospital", "rating": "None", "detail": "None", "location": "None", "open_at": "None", "phone": "None"}, {"name": "Punia Hospital", "rating": "None", "detail": "None", "location": "None", "open_at": "None", "phone": "None"}, {"name": "Punia Hospital", "rating": "None", "detail": "None", "location": "None", "open_at": "None", "phone": "None"}, {"name": "Punia Hospital", "rating": "None", "detail": "None", "location": "None", "open_at": "None", "phone": "None"}, {"name": "Punia Hospital", "rating": "None", "detail": "None", "location": "None", "open_at": "None", "phone": "None"}, {"name": "Punia Hospital", "rating": "None", "detail": "None", "location": "None", "open_at": "None", "phone": "None"}, {"name": "Punia Hospital", "rating": "None", "detail": "None", "location": "None", "open_at": "None", "phone": "None"}, {"name": "Punia Hospital", "rating": "None", "detail": "None", "location": "None", "open_at": "None", "phone": "None"}, {"name": "Punia Hospital", "rating": "None", "detail": "None", "location": "None", "open_at": "None", "phone": "None"}, {"name": "Punia Hospital", "rating": "None", "detail": "None", "location": "None", "open_at": "None", "phone": "None"}, {"name": "Punia Hospital", "rating": "None", "detail": "None", "location": "None", "open_at": "None", "phone": "None"}, {"name": "Punia Hospital", "rating": "None", "detail": "None", "location": "None", "open_at": "None", "phone": "None"}, {"name": "Punia Hospital", "rating": "None", "detail": "None", "location": "None", "open_at": "None", "phone": "None"}, {"name": "Punia Hospital", "rating": "None", "detail": "None", "location": "None", "open_at": "None", "phone": "None"}]}