{"pincode": "124514", "data": [{"name": "Eye Vision Optical", "rating": "5.0", "detail": "Eye care center", "location": "None", "open_at": "Open until 8:00 pm", "phone": "None"}, {"name": "RAJAT DENTAL CARE", "rating": "5.0", "detail": "Dental clinic", "location": "Shop No. 5,Tholedar Market, Rohtak Road, Lakhanmajra", "open_at": "Open until 5:00 pm \u00b7", "phone": "098133 40234"}, {"name": "Verma Dental Vlinic", "rating": "3.3", "detail": "Dental clinic", "location": "Nandal Rd", "open_at": "None", "phone": "None"}, {"name": "Dr. Om Prakash Clinic", "rating": "4.5", "detail": "Doctor", "location": "None", "open_at": "None", "phone": "None"}, {"name": "DR. HARIPAL CLINIC", "rating": "4.0", "detail": "Doctor", "location": "Chiri St", "open_at": "None", "phone": "None"}, {"name": "Community Health Centre , CHIRI , LAKHAN MAZRA , HARYANA", "rating": "4.6", "detail": "Community health centre", "location": "Gohana-Meham Rd", "open_at": "Closing soon: 4:00 pm", "phone": "None"}, {"name": "Metropolis Healthcare Ltd", "rating": "4.5", "detail": "Diagnostic center", "location": "1/3122 Ram Nagar Extension Indira Pyaogali, Main Ram Nagar Extension Mandoli Road", "open_at": "Open until 8:00 pm \u00b7", "phone": "022 3399 3939"}, {"name": "Dr Saty Singh Rathee", "rating": "4.3", "detail": "Doctor", "location": "Gohana-Meham Rd", "open_at": "None", "phone": "081689 47235"}, {"name": "Dental Health Clinic", "rating": "5.0", "detail": "Dental clinic", "location": "Dental Health Clinic", "open_at": "None", "phone": "None"}, {"name": "Vaidh jaibhagwan girawad", "rating": "5.0", "detail": "Doctor", "location": "None", "open_at": "Open until 6:00 pm \u00b7", "phone": "094161 93948"}, {"name": "Rathee Hospital", "rating": "5.0", "detail": "Hospital", "location": "National Highway 71", "open_at": "None", "phone": "098962 90772"}, {"name": "Viswas Hospital", "rating": "5.0", "detail": "Hospital", "location": "\u091c\u0940\u0928\u094d\u0926 - \u091c\u0941\u0932\u093e\u0928\u093e - \u0930\u094b\u0939\u0924\u0915 \u092e\u093e\u0930\u094d\u0917", "open_at": "Open until 5:00 pm \u00b7", "phone": "098133 58844"}, {"name": "Eye Vision Optical", "rating": "5.0", "detail": "Eye care center", "location": "None", "open_at": "Open until 8:00 pm", "phone": "None"}, {"name": "RAJAT DENTAL CARE", "rating": "5.0", "detail": "Dental clinic", "location": "Shop No. 5,Tholedar Market, Rohtak Road, Lakhanmajra", "open_at": "Open until 5:00 pm \u00b7", "phone": "098133 40234"}, {"name": "Verma Dental Vlinic", "rating": "3.3", "detail": "Dental clinic", "location": "Nandal Rd", "open_at": "None", "phone": "None"}, {"name": "Dr. Om Prakash Clinic", "rating": "4.5", "detail": "Doctor", "location": "None", "open_at": "None", "phone": "None"}, {"name": "DR. HARIPAL CLINIC", "rating": "4.0", "detail": "Doctor", "location": "Chiri St", "open_at": "None", "phone": "None"}, {"name": "Community Health Centre , CHIRI , LAKHAN MAZRA , HARYANA", "rating": "4.6", "detail": "Community health centre", "location": "Gohana-Meham Rd", "open_at": "Closing soon: 4:00 pm", "phone": "None"}, {"name": "Metropolis Healthcare Ltd", "rating": "4.5", "detail": "Diagnostic center", "location": "1/3122 Ram Nagar Extension Indira Pyaogali, Main Ram Nagar Extension Mandoli Road", "open_at": "None", "phone": "098960 44525"}, {"name": "E.N.T Clinic", "rating": "5.0", "detail": "Medical clinic", "location": "Jhajjar Rd", "open_at": "Reopens at 5:00 pm", "phone": "None"}, {"name": "Piles Painless Clinic", "rating": "3.5", "detail": "Medical clinic", "location": "Dr D P VERMA Circular Road, &, Railway Flyover, near Double Phatak", "open_at": "None", "phone": "094161 59620"}, {"name": "Ishwar Eye Centre - Best eye hospital in Rohtak", "rating": "None", "detail": "Eye care center", "location": "No. 926, Vijay Park", "open_at": "Opens at 7:45 am \u00b7", "phone": "092543 08885"}, {"name": "Dr. Bantu Harhwala", "rating": "4.0", "detail": "Hospital", "location": "None", "open_at": "None", "phone": "094166 63370"}, {"name": "Suri Dental Care Clinic", "rating": "3.7", "detail": "Dental clinic", "location": "Suri Dental Care Clinic, Palika Bazar,", "open_at": "Reopens at 5:30 pm \u00b7", "phone": "01262 268 313"}, {"name": "Dr Arya,s Homoeopathic ,Acupressure And Acupunture Clinic", "rating": "5.0", "detail": "Hospital", "location": "Rohtak", "open_at": "Reopens at 5:00 pm \u00b7", "phone": "092541 11114"}, {"name": "Juneja Ayurveda-Herbal Treatment Clinic in Rohtak,", "rating": "4.3", "detail": "Alternative medicine practitioner", "location": "Rohtak", "open_at": "Open until 7:00 pm \u00b7", "phone": "098123 13648"}, {"name": "Takkar Clinic", "rating": "5.0", "detail": "Medical clinic", "location": "None", "open_at": "None", "phone": "None"}, {"name": "Jiwan Clinic & Nursing Home", "rating": "5.0", "detail": "Medical clinic", "location": "Rohtak", "open_at": "None", "phone": "094160 53316"}, {"name": "Study Coaching Deep Hospital Gohana", "rating": "5.0", "detail": "Hospital", "location": "Lakhan Majra", "open_at": "None", "phone": "None"}, {"name": "Ch. Mirsingh Bedh", "rating": "None", "detail": "Alternative Medicine Clinic", "location": "Vpo", "open_at": "None", "phone": "None"}, {"name": "Batra Hospital", "rating": "3.4", "detail": "Medical clinic", "location": "Rohtak", "open_at": "None", "phone": "098960 44525"}, {"name": "E.N.T Clinic", "rating": "2.4", "detail": "Medical clinic", "location": "Rohtak", "open_at": "Reopens at 5:00 pm", "phone": "None"}, {"name": "Piles Painless Clinic", "rating": "4.6", "detail": "Medical clinic", "location": "Jind", "open_at": "Open until 7:00 pm \u00b7", "phone": "0168 125 3101"}, {"name": "Puri Manorog Kendra - Best Psychiatrist Doctor in Rohtak", "rating": "3.8", "detail": "Psychiatrist", "location": "Rohtak", "open_at": "Open until 6:00 pm \u00b7", "phone": "098960 57351"}, {"name": "The Aaryan Public School", "rating": "3.0", "detail": "School", "location": "Lakhan Majra", "open_at": "None", "phone": "092543 43004"}, {"name": "Vardaan pet shop and clinic Jind Haryana", "rating": "4.1", "detail": "Medical clinic", "location": "None", "open_at": "None", "phone": "094166 21133"}, {"name": "Multispeciality Dental Centre", "rating": "4.2", "detail": "Dental clinic", "location": "Rohtak", "open_at": "None", "phone": "099960 06110"}, {"name": "SHEETLA PUBLIC SCHOOL", "rating": "None", "detail": "CBSE School", "location": "Lakhan Majra", "open_at": "None", "phone": "097290 04053"}, {"name": "Government Senior Secondary School, Gharawathi", "rating": "3.3", "detail": "Government School", "location": "Guroothi", "open_at": "None", "phone": "None"}, {"name": "Esthetica Beauty N Wellness", "rating": "5.0", "detail": "Dermatologist", "location": "None", "open_at": "Reopens at 5:00 pm", "phone": "None"}, {"name": "Punjab & Sindh Bank", "rating": "4.8", "detail": "Bank", "location": "None", "open_at": "Open until 5:00 pm", "phone": "None"}, {"name": "Spine and pain clinic (Dr sandeep duhan)", "rating": "3.0", "detail": "Doctor", "location": "Rohtak", "open_at": "None", "phone": "090509 54596"}, {"name": "Uttam clinic Dr. Satish", "rating": "4.6", "detail": "Doctor", "location": "Kalanaur", "open_at": "Open until 10:00 pm \u00b7", "phone": "01258 222 466"}, {"name": "Dr.Gogia's Super Speciality Dental Care Centre, Rohtak", "rating": "4.8", "detail": "Dental clinic", "location": "Rohtak", "open_at": "Open until 5:00 pm \u00b7", "phone": "072064 44090"}, {"name": "NANDAL HOSPITAL", "rating": "4.7", "detail": "Maternity Centre", "location": "Rohtak", "open_at": "Reopens at 4:00 pm \u00b7", "phone": "081999 94191"}, {"name": "SmileAxis Multispeciality Dental Clinic and Implant Centre", "rating": "4.8", "detail": "Dental clinic", "location": "Rohtak", "open_at": "Open until 8:00 pm \u00b7", "phone": "070567 95050"}, {"name": "RPS", "rating": "None", "detail": "School", "location": "Unnamed Road", "open_at": "None", "phone": "None"}, {"name": "Nandal", "rating": "None", "detail": "None", "location": "None", "open_at": "None", "phone": "None"}, {"name": "Lakhan majra Tehsil", "rating": "3.8", "detail": "Government office", "location": "Lakhan Majra", "open_at": "Open until 5:00 pm", "phone": "None"}, {"name": "Pruthi E.N.T. Clinic", "rating": "4.3", "detail": "Eye care center", "location": "Sonipat", "open_at": "Open until 7:30 pm \u00b7", "phone": "078240 15453"}, {"name": "Dr. Mittal's Advanced Dental & Orthodontic Clinic", "rating": "3.2", "detail": "Orthodontist", "location": "Sonipat", "open_at": "Opens at 4:30 pm \u00b7", "phone": "094164 86808"}, {"name": "Armaan Dental Clinic & Smile Center - Dental Clinic in Bhiwani", "rating": "4.0", "detail": "Dental clinic", "location": "Bhiwani", "open_at": "Open until 7:00 pm \u00b7", "phone": "098134 12186"}, {"name": "Delivery Hut", "rating": "5.0", "detail": "Hospital", "location": "None", "open_at": "Open until 5:00 pm", "phone": "None"}, {"name": "Cosmodentz Gupta Dental Hospital Jind", "rating": "5.0", "detail": "Cosmetic dentist", "location": "Jind", "open_at": "Open until 8:00 pm \u00b7", "phone": "086839 48383"}, {"name": "Dr. Sonika Mann (Mann Multispeciality Hospital)", "rating": "3.4", "detail": "Obstetrician-gynecologist", "location": "Rohtak", "open_at": "Reopens at 4:00 pm", "phone": "None"}, {"name": "Delhi Hospital & Maternity Home", "rating": "4.8", "detail": "Private hospital", "location": "Jind", "open_at": "None", "phone": "0168 124 7287"}, {"name": "Dr MOHIT NAGPAL", "rating": "3.9", "detail": "Dermatologist", "location": "None", "open_at": "Opens at 5:00 pm \u00b7", "phone": "090345 24172"}, {"name": "Dr. Sangeeta Atri", "rating": "None", "detail": "Obstetrician-gynecologist", "location": "Rohtak", "open_at": "Reopens at 4:00 pm \u00b7", "phone": "086077 74555"}, {"name": "Armaan Dental Hospital", "rating": "3.9", "detail": "Dental clinic", "location": "Bhiwani", "open_at": "None", "phone": "096715 57262"}, {"name": "Dr. Ravi Mohan", "rating": "5.0", "detail": "Doctor", "location": "Rohtak", "open_at": "None", "phone": "01262 280 427"}, {"name": "City Heart Clinic & Nursing Home", "rating": "4.3", "detail": "Hospital", "location": "Rohtak", "open_at": "Open until 7:00 pm", "phone": "None"}, {"name": "Dr. Parmod Marwah", "rating": "None", "detail": "Doctor", "location": "Rohtak", "open_at": "Opens at 9:00 am \u00b7", "phone": "01262 290 853"}, {"name": "Batra Clinic", "rating": "5.0", "detail": "Hospital", "location": "Rohtak", "open_at": "None", "phone": "094164 73285"}, {"name": "Dr. Vivek Dhillon@ Retina", "rating": "5.0", "detail": "Ophthalmologist", "location": "None", "open_at": "Reopens at 5:00 pm", "phone": "None"}, {"name": "Govt.VD, Kilazafargarh", "rating": "None", "detail": "Hospital", "location": "None", "open_at": "Opens at 8:00 am", "phone": "None"}, {"name": "Dr Devender Sangwan #Hope Psychiatric and Drug de-addiction clinic", "rating": "5.0", "detail": "Hospital", "location": "Rohtak", "open_at": "Reopens at 4:30 pm", "phone": "None"}, {"name": "Dr. Mittal's Advanced Dental & Orthodontic Clinic", "rating": "4.9", "detail": "Orthodontist", "location": "Sonipat", "open_at": "None", "phone": "094164 86808"}, {"name": "Dr Kalra Clinic", "rating": "3.4", "detail": "Hospital", "location": "None", "open_at": "Open until 7:00 pm \u00b7", "phone": "01262 252 576"}, {"name": "Cataract Surgery in Sonipat - EYE Q INDIA", "rating": "3.1", "detail": "Eye care center", "location": "Sonipat", "open_at": "Open until 7:30 pm \u00b7", "phone": "078240 15453"}, {"name": "Dr. Mittal's Advanced Dental & Orthodontic Clinic", "rating": "4.3", "detail": "Orthodontist", "location": "Sonipat", "open_at": "Opens at 4:30 pm \u00b7", "phone": "01262 251 787"}, {"name": "DR RAMESH BANSAL Hospital", "rating": "3.7", "detail": "Hospital", "location": "Rohtak", "open_at": "Reopens at 5:00 pm \u00b7", "phone": "099965 90198"}, {"name": "Dhadkan Heart Clinic", "rating": "5.0", "detail": "Heart hospital", "location": "Gurugram", "open_at": "Open until 8:00 pm \u00b7", "phone": "098103 33738"}, {"name": "Dr Smita Kashyap - Best Dermatologist, Skin & Laser Specialist Gurgaon India", "rating": "5.0", "detail": "Skin care clinic", "location": "Gurugram", "open_at": "Open until 7:30 pm \u00b7", "phone": "088001 88334"}, {"name": "Dr. Ramesh Bansal", "rating": "None", "detail": "Medical clinic", "location": "New Delhi", "open_at": "None", "phone": "011 2705 7522"}, {"name": "Saini Hospital - Best Medical Specialist in Rohtak", "rating": "5.0", "detail": "Hospital", "location": "Rohtak", "open_at": "None", "phone": "098121 42227"}, {"name": "Government Veterinary hospital", "rating": "5.0", "detail": "Animal hospital", "location": "None", "open_at": "None", "phone": "093556 10657"}, {"name": "Dr. Juneja Sex Clinic - Sex doctor in sonipat", "rating": "5.0", "detail": "Sexologist", "location": "Sonipat", "open_at": "Open until 5:00 pm \u00b7", "phone": "098120 90910"}, {"name": "Dr.Rk pruthi ENT", "rating": "4.0", "detail": "Hospital", "location": "None", "open_at": "None", "phone": "None"}, {"name": "Kainos Super Speciality Hospital", "rating": "3.8", "detail": "Hospital", "location": "Rohtak", "open_at": "None", "phone": "093690 20202"}, {"name": "Soni Skin & hair Clinic - Best Skin Clinic | Dermatologist In Jind", "rating": "3.5", "detail": "Hospital", "location": "Jind", "open_at": "Opens at 9:00 am \u00b7", "phone": "090170 69591"}, {"name": "Dr Dhanwantri Hospital", "rating": "3.4", "detail": "Hospital", "location": "None", "open_at": "None", "phone": "None"}, {"name": "Anand Dental Clinic", "rating": "5.0", "detail": "Dental clinic", "location": "Sonipat", "open_at": "Open until 9:00 pm \u00b7", "phone": "089013 54205"}, {"name": "DR. RAMESH BANSAL in Rohini, Delhi (sat & sun)", "rating": "4.5", "detail": "Skin care clinic", "location": "New Delhi", "open_at": "None", "phone": "088002 26937"}, {"name": "SkinPrayag - The Skin & Hair Clinic", "rating": "4.6", "detail": "Skin care clinic", "location": "New Delhi", "open_at": "None", "phone": "093135 63999"}, {"name": "Spine & Stroke Rehab Clinic in Gurgaon, Back Knee & Cervical Pain Treatment", "rating": "5.0", "detail": "Orthopedic surgeon", "location": "Gurugram", "open_at": "Open until 8:00 pm \u00b7", "phone": "098103 33738"}, {"name": "Mann MultiSpecialty Hospital", "rating": "4.0", "detail": "General hospital", "location": "Rohtak", "open_at": "None", "phone": "090530 25025"}, {"name": "Laser Clinic - Dermatologist, Skin & Hair Fall Specialist in Gurgaon", "rating": "5.0", "detail": "Dermatologist", "location": "Gurugram", "open_at": "Open until 7:00 pm \u00b7", "phone": "088001 88335"}, {"name": "Jeevandeep Diagnostic center", "rating": "4.2", "detail": "Medical diagnostic imaging center", "location": "Sonipat", "open_at": "Closing soon: 4:00 pm \u00b7", "phone": "082228 20795"}, {"name": "Dr Rajiv Goyal", "rating": "3.9", "detail": "Medical clinic", "location": "Delhi", "open_at": "None", "phone": "None"}, {"name": "Dahiya Medical Centre", "rating": "5.0", "detail": "Private hospital", "location": "Rohtak", "open_at": "Reopens at 5:00 pm \u00b7", "phone": "01262 251 787"}, {"name": "DR RAMESH BANSAL Hospital", "rating": "3.7", "detail": "Hospital", "location": "Rohtak", "open_at": "Reopens at 5:00 pm \u00b7", "phone": "099965 90198"}, {"name": "Dhadkan Heart Clinic", "rating": "5.0", "detail": "Heart hospital", "location": "Gurugram", "open_at": "Open until 8:00 pm \u00b7", "phone": "098103 33738"}, {"name": "Dr Smita Kashyap - Best Dermatologist, Skin & Laser Specialist Gurgaon India", "rating": "5.0", "detail": "Skin care clinic", "location": "Gurugram", "open_at": "Open until 7:30 pm \u00b7", "phone": "01262 262 292"}, {"name": "Meditation Classes at Your Place!", "rating": "4.3", "detail": "Meditation Class", "location": "New Delhi", "open_at": "Open until 6:00 pm \u00b7", "phone": "088020 20915"}, {"name": "Ravi Mohan Hospital", "rating": "None", "detail": "Hospital", "location": "Rohtak", "open_at": "None", "phone": "None"}, {"name": "City Maternity And Nursing Home", "rating": "5.0", "detail": "Hospital", "location": "None", "open_at": "Open until 5:00 pm", "phone": "None"}, {"name": "APEX PLUS SUPER SPECIALITY HOSPITAL", "rating": "3.3", "detail": "Hospital", "location": "Rohtak", "open_at": "Reopens at 5:00 pm \u00b7", "phone": "096714 83364"}, {"name": "Noble Heart & Super Speciality Hospital, Rohtak", "rating": "4.1", "detail": "Hospital", "location": "Rohtak", "open_at": "None", "phone": "082220 90034"}, {"name": "Curofy", "rating": "4.2", "detail": "Medical group", "location": "Gurugram", "open_at": "Open until 7:00 pm", "phone": "None"}, {"name": "Sunflag Global Hospital opnig day", "rating": "4.1", "detail": "Hospital", "location": "Rohtak", "open_at": "None", "phone": "None"}, {"name": "Dr Pallavi Grover - Gynaecologist in Gurgaon", "rating": "4.7", "detail": "Obstetrician-gynecologist", "location": "Gurugram", "open_at": "Open until 8:00 pm \u00b7", "phone": "088001 88334"}, {"name": "Siwach Hospital", "rating": "3.8", "detail": "General hospital", "location": "Rohtak", "open_at": "None", "phone": "098960 34922"}, {"name": "Onyx Hospital", "rating": "3.7", "detail": "Hospital", "location": "Rohtak", "open_at": "None", "phone": "093548 47444"}, {"name": "Phyzicia Home Health Care Services", "rating": "5.0", "detail": "Hospital", "location": "Rohtak", "open_at": "None", "phone": "None"}, {"name": "Sonia Dental & Child Care Hospital", "rating": "4.9", "detail": "Hospital", "location": "None", "open_at": "Open until 8:00 pm \u00b7", "phone": "01262 283 650"}, {"name": "Ganga Ram Hospital", "rating": "3.9", "detail": "Hospital", "location": "Rohtak", "open_at": "Reopens at 4:00 pm \u00b7", "phone": "01262 253 371"}, {"name": "Dr Gupta Children Hospital", "rating": "2.7", "detail": "Hospital", "location": "Gohana", "open_at": "None", "phone": "None"}, {"name": "Positron -Multi Speciality & Cancer Hospital Rohtak", "rating": "4.8", "detail": "Hospital", "location": "Rohtak", "open_at": "None", "phone": "085710 81699"}, {"name": "Dr. Sandeep Jain", "rating": "None", "detail": "Hospital", "location": "Rohtak", "open_at": "None", "phone": "None"}, {"name": "Kainos OPD", "rating": "None", "detail": "Hospital", "location": "None", "open_at": "Reopens at 4:30 pm", "phone": "None"}, {"name": "Dr. Sanjay Saxena", "rating": "3.2", "detail": "Hospital", "location": "Rohtak", "open_at": "None", "phone": "098120 22150"}, {"name": "SPES Children Hospital", "rating": "3.1", "detail": "Hospital", "location": "Rohtak", "open_at": "Reopens at 5:00 pm \u00b7", "phone": "080599 93366"}, {"name": "Holy Heart Hospital", "rating": "3.8", "detail": "Heart hospital", "location": "Rohtak", "open_at": "None", "phone": "01262 262 292"}, {"name": "Meditation Classes at Your Place!", "rating": "4.3", "detail": "Meditation Class", "location": "New Delhi", "open_at": "Open until 6:00 pm \u00b7", "phone": "088020 20915"}, {"name": "Ravi Mohan Hospital", "rating": "None", "detail": "Hospital", "location": "Rohtak", "open_at": "None", "phone": "None"}, {"name": "City Maternity And Nursing Home", "rating": "5.0", "detail": "Hospital", "location": "None", "open_at": "Open until 5:00 pm", "phone": "None"}, {"name": "APEX PLUS SUPER SPECIALITY HOSPITAL", "rating": "3.3", "detail": "Hospital", "location": "Rohtak", "open_at": "None", "phone": "None"}, {"name": "City Dog Clinic", "rating": "2.5", "detail": "Veterinarian", "location": "Rohtak", "open_at": "None", "phone": "None"}, {"name": "Be Gorgeous", "rating": "4.6", "detail": "Hair extensions supplier", "location": "New Delhi", "open_at": "Open until 8:00 pm \u00b7", "phone": "096549 95799"}, {"name": "Dr. Prashant Tyagi Cosmplastik", "rating": "5.0", "detail": "Plastic surgeon", "location": "Sonipat", "open_at": "Reopens at 5:00 pm \u00b7", "phone": "070826 52556"}, {"name": "Sanjeevani Kayashodan Sansthan", "rating": "4.5", "detail": "Alternative Medicine Clinic", "location": "Gohana", "open_at": "Open until 6:00 pm \u00b7", "phone": "094161 08672"}, {"name": "Dr Kuldeep Kumar - Physician, Best Pulmonologist in Gurgaon,TB, Lungs & Bronchoscopy Specialist", "rating": "3.8", "detail": "Pulmonologist", "location": "Gurugram", "open_at": "Open until 7:00 pm \u00b7", "phone": "098103 33738"}, {"name": "Dr Hema Kapoor", "rating": "5.0", "detail": "Surgeon", "location": "Gurugram", "open_at": "Opens at 4:00 pm \u00b7", "phone": "098187 58078"}, {"name": "Sunflag Superspeciality Hospital and Trauma Center", "rating": "3.7", "detail": "Hospital", "location": "Rohtak", "open_at": "None", "phone": "098128 06161"}, {"name": "Ishwar Orthopeadic And Joint Replacement Hospital", "rating": "4.1", "detail": "Hospital", "location": "Rohtak", "open_at": "Closing soon: 4:30 pm \u00b7", "phone": "01262 255 124"}, {"name": "Indira IVF Rohtak", "rating": "4.0", "detail": "Hospital", "location": "Rohtak", "open_at": "Open until 6:00 pm \u00b7", "phone": "074120 31041"}, {"name": "KRV Healthcare & Physiotherapy(Only Home Visit)", "rating": "4.8", "detail": "Physiotherapist", "location": "New Delhi", "open_at": "Open until 8:00 pm \u00b7", "phone": "099999 98934"}, {"name": "Deaddiction Centre, Psychiatry Department", "rating": "None", "detail": "Hospital", "location": "Rohtak", "open_at": "None", "phone": "0168 125 3386"}, {"name": "Ranvir Hospital", "rating": "4.3", "detail": "Hospital", "location": "Bhiwani", "open_at": "None", "phone": "0166 425 1010"}, {"name": "J B Gupta Hospital", "rating": "3.4", "detail": "General hospital", "location": "Bhiwani", "open_at": "None", "phone": "092153 76262"}, {"name": "Manappuram Finance Limited", "rating": "5.0", "detail": "Accounting firm", "location": "None", "open_at": "None", "phone": "0460 225 5166"}, {"name": "Bhardwaj Multispeciality Hospital", "rating": "4.0", "detail": "Hospital", "location": "Bhiwani", "open_at": "None", "phone": "094684 24268"}, {"name": "Punia maternity &Orthopaedics hospital(Dr. Suman Punia)", "rating": "3.0", "detail": "Hospital", "location": "Bhiwani", "open_at": "None", "phone": "None"}, {"name": "Darya Ram Hospital Pvt. Ltd.", "rating": "3.8", "detail": "Private hospital", "location": "Sonipat", "open_at": "None", "phone": "0130 223 4005"}, {"name": "Dixit Skin Care Hospital", "rating": "3.8", "detail": "Hospital", "location": "Bhiwani", "open_at": "Reopens at 5:30 pm \u00b7", "phone": "0166 424 6488"}, {"name": "Tulip Sonipat", "rating": "3.6", "detail": "Hospital", "location": "Sonipat", "open_at": "None", "phone": "0130 221 8812"}, {"name": "GREWAL HOSPITAL", "rating": "5.0", "detail": "Hospital", "location": "Bhiwani", "open_at": "None", "phone": "None"}, {"name": "Bank of India", "rating": "4.0", "detail": "Public Sector Bank", "location": "None", "open_at": "Closing soon: 4:00 pm \u00b7", "phone": "01262 215 655"}, {"name": "Dahiya Hospital (Eye & Maternity)", "rating": "4.4", "detail": "Hospital", "location": "Sonipat", "open_at": "Reopens at 4:30 pm \u00b7", "phone": "0130 225 5727"}, {"name": "Dhir Hospital", "rating": "4.4", "detail": "Hospital", "location": "Bhiwani", "open_at": "Open until 6:30 pm \u00b7", "phone": "072067 99506"}, {"name": "Gaur Ayurvedic Hospital", "rating": "3.7", "detail": "Hospital", "location": "None", "open_at": "Opens at 9:00 am \u00b7", "phone": "098120 91791"}, {"name": "Dr. Minakshi Jain Multispeciality Hospital - Medical Specialist In Jind", "rating": "3.7", "detail": "Hospital", "location": "Jind", "open_at": "Open until 7:00 pm \u00b7", "phone": "0168 125 3386"}, {"name": "Sunrise Hospital", "rating": "4.9", "detail": "Hospital", "location": "Safidon", "open_at": "None", "phone": "0168 626 4064"}, {"name": "Sunita beauty clinic", "rating": "4.2", "detail": "Beauty Parlour", "location": "Rohtak", "open_at": "Open until 8:00 pm \u00b7", "phone": "098967 80995"}, {"name": "Kharb Hospital", "rating": "4.1", "detail": "Hospital", "location": "Jind", "open_at": "None", "phone": "81680413000"}, {"name": "Dr Gera Chest Hospital", "rating": "5.0", "detail": "Hospital", "location": "Jind", "open_at": "None", "phone": "None"}, {"name": "Bank of India", "rating": "None", "detail": "Bank", "location": "Rohtak", "open_at": "None", "phone": "215655"}, {"name": "Meenakshi Jain hospital", "rating": "4.3", "detail": "Hospital", "location": "Sonipat", "open_at": "None", "phone": "070565 11111"}, {"name": "Swin Beauty Clinic", "rating": "3.6", "detail": "Beauty Parlour", "location": "Jind", "open_at": "Open until 9:00 pm \u00b7", "phone": "0168 125 5513"}, {"name": "JJ Institute Of Medical Sciences, Jeevan Jyoti Hospital -JJIMS", "rating": "4.6", "detail": "General hospital", "location": "Bahadurgarh", "open_at": "None", "phone": "070561 00100"}, {"name": "Dr Batra's Homeopathy", "rating": "4.1", "detail": "Homeopath", "location": "Rohtak", "open_at": "Open until 8:00 pm \u00b7", "phone": "070450 00666"}, {"name": "Bajaj Clinic", "rating": "5.0", "detail": "Medical clinic", "location": "Amritsar", "open_at": "None", "phone": "0183 222 2658"}, {"name": "Indira IVF Rohtak", "rating": "4.8", "detail": "Hospital", "location": "Rohtak", "open_at": "Open until 6:00 pm \u00b7", "phone": "072300 36669"}, {"name": "Indira IVF Rohtak", "rating": "None", "detail": "None", "location": "None", "open_at": "None", "phone": "None"}, {"name": "Indira IVF Rohtak", "rating": "None", "detail": "None", "location": "None", "open_at": "None", "phone": "None"}, {"name": "Indira IVF Rohtak", "rating": "None", "detail": "None", "location": "None", "open_at": "None", "phone": "None"}, {"name": "Indira IVF Rohtak", "rating": "None", "detail": "None", "location": "None", "open_at": "None", "phone": "None"}, {"name": "Indira IVF Rohtak", "rating": "None", "detail": "None", "location": "None", "open_at": "None", "phone": "None"}, {"name": "Indira IVF Rohtak", "rating": "None", "detail": "None", "location": "None", "open_at": "None", "phone": "None"}, {"name": "Indira IVF Rohtak", "rating": "None", "detail": "None", "location": "None", "open_at": "None", "phone": "None"}, {"name": "Indira IVF Rohtak", "rating": "None", "detail": "None", "location": "None", "open_at": "None", "phone": "None"}]}