{"pincode": "125103", "data": [{"name": "Sharma Clinic & General Store", "rating": "5.0", "detail": "Medical clinic", "location": "None", "open_at": "Open until 8:00 pm", "phone": "None"}, {"name": "Aarogay Elctropathy Clinic", "rating": "5.0", "detail": "Medical clinic", "location": "Shop no . 8", "open_at": "Open until 7:30 pm", "phone": "None"}, {"name": "Delivery hut", "rating": "5.0", "detail": "Women's health clinic", "location": "125103, Ram Garh Rd", "open_at": "None", "phone": "None"}, {"name": "Pannu clinic", "rating": "5.0", "detail": "Medical clinic", "location": "Unnamed Road", "open_at": "Open until 8:30 pm", "phone": "None"}, {"name": "Rdx's Residence", "rating": "5.0", "detail": "Medical clinic", "location": "Mammer Khera To Mattuwala Rd", "open_at": "None", "phone": "None"}, {"name": "Royal Health Care Medicos", "rating": "5.0", "detail": "Medical clinic", "location": "None", "open_at": "Open until 8:00 pm", "phone": "None"}, {"name": "Dr. Mohanlal Brawed", "rating": "5.0", "detail": "Medical clinic", "location": "Chakkan Outer Rd", "open_at": "Open until 6:00 pm", "phone": "None"}, {"name": "Sidhu Clinic", "rating": "4.7", "detail": "Medical clinic", "location": "None", "open_at": "Open until 9:00 pm \u00b7", "phone": "094665 35708"}, {"name": "\u0906\u0902\u0917\u0928\u0935\u093e\u095c\u0940 \u0915\u0947\u0902\u0926\u094d\u0930", "rating": "5.0", "detail": "Child health care centre", "location": "None", "open_at": "None", "phone": "None"}, {"name": "Dr. Vinod", "rating": "5.0", "detail": "Dental clinic", "location": "None", "open_at": "None", "phone": "None"}, {"name": "Sharma Clinic & General Store", "rating": "5.0", "detail": "Medical clinic", "location": "None", "open_at": "Open until 8:00 pm", "phone": "None"}, {"name": "Aarogay Elctropathy Clinic", "rating": "5.0", "detail": "Medical clinic", "location": "Shop no . 8", "open_at": "Open until 7:30 pm", "phone": "None"}, {"name": "Delivery hut", "rating": "5.0", "detail": "Women's health clinic", "location": "125103, Ram Garh Rd", "open_at": "None", "phone": "None"}, {"name": "Pannu clinic", "rating": "5.0", "detail": "Medical clinic", "location": "Unnamed Road", "open_at": "Open until 8:30 pm", "phone": "None"}, {"name": "Rdx's Residence", "rating": "5.0", "detail": "Medical clinic", "location": "Mammer Khera To Mattuwala Rd", "open_at": "None", "phone": "None"}, {"name": "Royal Health Care Medicos", "rating": "5.0", "detail": "Medical clinic", "location": "None", "open_at": "Open until 8:00 pm", "phone": "None"}, {"name": "Dr. Mohanlal Brawed", "rating": "5.0", "detail": "Medical clinic", "location": "Chakkan Outer Rd", "open_at": "None", "phone": "094677 38543"}, {"name": "Sawatic Clinic Kulchander", "rating": "3.0", "detail": "Doctor", "location": "None", "open_at": "None", "phone": "None"}, {"name": "Gagneja Clinic", "rating": "5.0", "detail": "Medical clinic", "location": "Unnamed Road", "open_at": "None", "phone": "None"}, {"name": "sugam medicous", "rating": "None", "detail": "Medical group", "location": "bahia road", "open_at": "None", "phone": "None"}, {"name": "Preet Clinic", "rating": "None", "detail": "Medical clinic", "location": "Sant Nagar", "open_at": "None", "phone": "None"}, {"name": "Saini Clinic", "rating": "4.7", "detail": "Medical clinic", "location": "Sant Nagar", "open_at": "Open until 7:00 pm \u00b7", "phone": "094162 89689"}, {"name": "Singla Skin Hospital", "rating": "5.0", "detail": "Skin care clinic", "location": "Sirsa", "open_at": "Reopens at 5:00 pm \u00b7", "phone": "094679 07924"}, {"name": "Sethi Hospital", "rating": "4.7", "detail": "Hospital", "location": "Goriwala", "open_at": "Open until 7:00 pm \u00b7", "phone": "0166 828 2311"}, {"name": "Grover Dental Clinic", "rating": "5.0", "detail": "Medical clinic", "location": "Mandi Dabwali", "open_at": "Open until 8:00 pm", "phone": "None"}, {"name": "Shri Ram G Optical And Eye Care Hospital", "rating": "5.0", "detail": "Eye care center", "location": "None", "open_at": "None", "phone": "098120 36937"}, {"name": "eye lence shop", "rating": "None", "detail": "Ophthalmology clinic", "location": "Mandi Dabwali", "open_at": "None", "phone": "None"}, {"name": "Bholyan Sadan", "rating": "5.0", "detail": "Acupuncture clinic", "location": "None", "open_at": "None", "phone": "097294 32516"}, {"name": "RAJENDER JODHPURIA", "rating": "5.0", "detail": "Psychologist", "location": "None", "open_at": "None", "phone": "080537 70007"}, {"name": "Lakshya Homoeopathic clinic", "rating": "4.0", "detail": "Medical clinic", "location": "None", "open_at": "Open until 8:00 pm \u00b7", "phone": "085299 85299"}, {"name": "Delhi Eye Care", "rating": "None", "detail": "Eye care center", "location": "Mandi Dabwali", "open_at": "Open until 7:00 pm \u00b7", "phone": "099925 00078"}, {"name": "Bala ji Medcial Ellenabad", "rating": "None", "detail": "Medical clinic", "location": "None", "open_at": "None", "phone": "None"}, {"name": "ayurvedic clinic", "rating": "None", "detail": "Medical clinic", "location": "Raman", "open_at": "None", "phone": "None"}, {"name": "Dental Dost", "rating": "None", "detail": "Dental clinic", "location": "Mandi Dabwali", "open_at": "Open until 8:00 pm \u00b7", "phone": "098966 90880"}, {"name": "sant malsingh memorial homeopathic clinic", "rating": "5.0", "detail": "Hospital", "location": "Sant Nagar", "open_at": "None", "phone": "None"}, {"name": "Brar Dental Clinic", "rating": "None", "detail": "Dental clinic", "location": "Mandi Dabwali", "open_at": "None", "phone": "None"}, {"name": "Cheema acupressure", "rating": "5.0", "detail": "Acupuncture clinic", "location": "Mandi Dabwali", "open_at": "Open until 8:00 pm \u00b7", "phone": "093550 42485"}, {"name": "malkit clinic", "rating": "3.0", "detail": "Pharmacy", "location": "Kaluwana", "open_at": "Open until 8:00 pm", "phone": "None"}, {"name": "Harikrishan", "rating": "None", "detail": "Medical clinic", "location": "Budhi Mari", "open_at": "None", "phone": "None"}, {"name": "dashmesh diagnostic center", "rating": "None", "detail": "Diagnostic center", "location": "None", "open_at": "None", "phone": "None"}, {"name": "Raj Hospital (24 Hrs Emergency Hospital/Best Private Hospital In Mandi Dabwali)", "rating": "5.0", "detail": "Medical clinic", "location": "Mandi Dabwali", "open_at": "None", "phone": "094161 08536"}, {"name": "Grover Dental Clinic", "rating": "5.0", "detail": "Medical clinic", "location": "Mandi Dabwali", "open_at": "Open until 8:00 pm", "phone": "None"}, {"name": "Shri Ram G Optical And Eye Care Hospital", "rating": "5.0", "detail": "Eye care center", "location": "None", "open_at": "None", "phone": "098120 36937"}, {"name": "eye lence shop", "rating": "None", "detail": "Ophthalmology clinic", "location": "Mandi Dabwali", "open_at": "None", "phone": "None"}, {"name": "Bholyan Sadan", "rating": "5.0", "detail": "Acupuncture clinic", "location": "None", "open_at": "None", "phone": "097294 32516"}, {"name": "RAJENDER JODHPURIA", "rating": "5.0", "detail": "Psychologist", "location": "None", "open_at": "None", "phone": "080537 70007"}, {"name": "Lakshya Homoeopathic clinic", "rating": "4.8", "detail": "Medical clinic", "location": "None", "open_at": "Open until 8:00 pm \u00b7", "phone": "085299 85299"}, {"name": "Delhi Eye Care", "rating": "4.0", "detail": "Eye care center", "location": "Mandi Dabwali", "open_at": "Open until 7:00 pm \u00b7", "phone": "099925 00078"}, {"name": "Bala ji Medcial Ellenabad", "rating": "None", "detail": "Medical clinic", "location": "None", "open_at": "None", "phone": "None"}, {"name": "ayurvedic clinic", "rating": "None", "detail": "Medical clinic", "location": "Raman", "open_at": "None", "phone": "None"}, {"name": "Dental Dost", "rating": "None", "detail": "Dental clinic", "location": "Mandi Dabwali", "open_at": "Open until 8:00 pm \u00b7", "phone": "098966 90880"}, {"name": "sant malsingh memorial homeopathic clinic", "rating": "None", "detail": "Hospital", "location": "Sant Nagar", "open_at": "None", "phone": "None"}, {"name": "Brar Dental Clinic", "rating": "5.0", "detail": "Dental clinic", "location": "Mandi Dabwali", "open_at": "None", "phone": "None"}, {"name": "Cheema acupressure", "rating": "5.0", "detail": "Acupuncture clinic", "location": "Mandi Dabwali", "open_at": "Open until 8:00 pm \u00b7", "phone": "093550 42485"}, {"name": "Namdhari Clinic", "rating": "4.7", "detail": "Hospital", "location": "None", "open_at": "None", "phone": "None"}, {"name": "HMEL Occupational Health Center", "rating": "None", "detail": "Community health centre", "location": "None", "open_at": "None", "phone": "None"}, {"name": "DENTAL SQUARE", "rating": "5.0", "detail": "Dental clinic", "location": "Mandi Dabwali", "open_at": "Open until 8:00 pm \u00b7", "phone": "093552 24352"}, {"name": "Modern Lab.& X-ray Centre", "rating": "None", "detail": "Diagnostic center", "location": "Rania", "open_at": "Open until 8:00 pm \u00b7", "phone": "094163 51733"}, {"name": "Psychological counseling", "rating": "3.0", "detail": "Psychotherapist", "location": "None", "open_at": "None", "phone": "None"}, {"name": "Mandi Dabwali", "rating": "None", "detail": "Acupuncture clinic", "location": "None", "open_at": "Open until 7:00 pm", "phone": "None"}, {"name": "Sindhra Homeopathic Clinic", "rating": "3.0", "detail": "Doctor", "location": "None", "open_at": "None", "phone": "None"}, {"name": "Namdhari acupressure", "rating": "4.7", "detail": "Acupuncture clinic", "location": "Mandi Dabwali", "open_at": "Open until 7:30 pm", "phone": "None"}, {"name": "Krishna Medical Hall", "rating": "None", "detail": "Medical group", "location": "Mandi Dabwali", "open_at": "None", "phone": "None"}, {"name": "SANDHU HOMOEOPATHIC CLINIC", "rating": "3.0", "detail": "Hospital", "location": "Ellenabad", "open_at": "Open until 8:00 pm \u00b7", "phone": "098126 16621"}, {"name": "SINGLA DENTAL CLINIC", "rating": "5.0", "detail": "Dental clinic", "location": "MANDI", "open_at": "None", "phone": "None"}, {"name": "Ahluwalia Clinic", "rating": "5.0", "detail": "Hospital", "location": "Mandi Dabwali", "open_at": "None", "phone": "None"}, {"name": "Dr Lal PathLabs", "rating": "5.0", "detail": "Diagnostic center", "location": "Ellenabad", "open_at": "Open until 7:30 pm \u00b7", "phone": "070152 48631"}, {"name": "DEEP CLINIC", "rating": "5.0", "detail": "Hospital", "location": "None", "open_at": "Open until 10:30 pm", "phone": "None"}, {"name": "Jallan Dental Clinic", "rating": "None", "detail": "Dental clinic", "location": "None", "open_at": "None", "phone": "099913 11676"}, {"name": "Baba Ganga Ram charitable Clinic Ekta Nagari Mandi Dabwali Haryana India", "rating": "None", "detail": "Hospital", "location": "None", "open_at": "None", "phone": "None"}, {"name": "HK Gilhotra Clinic", "rating": "5.0", "detail": "Hospital", "location": "Ellenabad", "open_at": "None", "phone": "094162 84599"}, {"name": "Sandhu Homeopathic Clinic", "rating": "None", "detail": "Hospital", "location": "Ellenabad", "open_at": "Open until 8:00 pm", "phone": "None"}, {"name": "Vikas Ayurvedic Clinic", "rating": "2.0", "detail": "Hospital", "location": "Ellenabad", "open_at": "None", "phone": "094163 80027"}, {"name": "Dr Lal PathLabs", "rating": "1.0", "detail": "Diagnostic center", "location": "Power House Road", "open_at": "Open until 7:30 pm \u00b7", "phone": "081460 60059"}, {"name": "Delhi Eye Clinic", "rating": "None", "detail": "Hospital", "location": "Mandi Dabwali", "open_at": "None", "phone": "None"}, {"name": "Govt. Health clinic", "rating": "None", "detail": "Hospital", "location": "None", "open_at": "None", "phone": "None"}, {"name": "Sant Assa Singh G Virk Homeopathy clinic", "rating": "None", "detail": "Hospital", "location": "Ellenabad", "open_at": "Open until 6:00 pm", "phone": "None"}, {"name": "Gupta Dental Clinic", "rating": "5.0", "detail": "Dental clinic", "location": "None", "open_at": "Open until 6:00 pm \u00b7", "phone": "094163 12057"}, {"name": "City Clinic And Maternity Home", "rating": "5.0", "detail": "Hospital", "location": "Mandi Dabwali", "open_at": "Reopens at 5:00 pm \u00b7", "phone": "0166 822 3627"}, {"name": "Lehri Dental Clinic", "rating": "5.0", "detail": "Dental clinic", "location": "None", "open_at": "None", "phone": "None"}, {"name": "Arora Dental Hospital", "rating": "1.0", "detail": "Dental clinic", "location": "Ellenabad", "open_at": "None", "phone": "094160 46404"}, {"name": "Shyam Medical Store", "rating": "5.0", "detail": "Child health care centre", "location": "None", "open_at": "Open until 7:50 pm", "phone": "None"}, {"name": "Delhi clinic", "rating": "4.0", "detail": "Hospital", "location": "Mandi Dabwali", "open_at": "None", "phone": "None"}, {"name": "SANDHU HOMOEOPATHIC CLINIC", "rating": "3.0", "detail": "Hospital", "location": "Ellenabad", "open_at": "Open until 8:00 pm \u00b7", "phone": "098126 16621"}, {"name": "SINGLA DENTAL CLINIC", "rating": "5.0", "detail": "Dental clinic", "location": "Mandi Dabwali", "open_at": "Open until 8:00 pm \u00b7", "phone": "093555 05282"}, {"name": "Govt. High School Dhudianwali", "rating": "4.9", "detail": "School", "location": "None", "open_at": "None", "phone": "None"}, {"name": "Navdurga Beauty Parlour", "rating": "5.0", "detail": "Beauty Parlour", "location": "None", "open_at": "None", "phone": "None"}, {"name": "SWADESHIRAJ", "rating": "4.2", "detail": "E-commerce service", "location": "Keharwala", "open_at": "Open until 7:00 pm", "phone": "None"}, {"name": "Dall but house", "rating": "4.3", "detail": "Electronics store", "location": "None", "open_at": "None", "phone": "089299 11595"}, {"name": "DAYAL MOBILES", "rating": "3.7", "detail": "Cell phone accessory store", "location": "Goriwala", "open_at": "None", "phone": "None"}, {"name": "STATE BANK OF INDIA ATM", "rating": "4.8", "detail": "ATM", "location": "KALUANA", "open_at": "None", "phone": "None"}, {"name": "Care & Cure Reflexology & Accupressure Centre", "rating": "None", "detail": "Acupuncture clinic", "location": "Sirsa", "open_at": "Open until 8:00 pm \u00b7", "phone": "097288 85533"}, {"name": "THE FACE CLINIC ( Hair Salon & Beauty Parlour)", "rating": "5.0", "detail": "Beauty Parlour", "location": "Odhan", "open_at": "Open until 6:00 pm \u00b7", "phone": "095881 51774"}, {"name": "Sukheranwala", "rating": "None", "detail": "None", "location": "None", "open_at": "None", "phone": "None"}, {"name": "National Dental Clinic", "rating": "5.0", "detail": "Hospital", "location": "None", "open_at": "None", "phone": "None"}, {"name": "Gill's Smile Dental Clinic", "rating": "5.0", "detail": "Hospital", "location": "Mandi Dabwali", "open_at": "Reopens at 4:30 pm", "phone": "None"}, {"name": "Dr. Gautam Path Labs", "rating": "5.0", "detail": "Pathologist", "location": "Mandi Dabwali", "open_at": "Open until 7:00 pm \u00b7", "phone": "090505 49205"}, {"name": "Sachdeva Clinic", "rating": "4.5", "detail": "Hospital", "location": "Ellenabad", "open_at": "Open until 8:30 pm", "phone": "None"}, {"name": "Govt. Veterinary Dispansary ,Sukhera Khera", "rating": "4.0", "detail": "Hospital", "location": "None", "open_at": "Opens at 8:30 am \u00b7", "phone": "099968 74686"}, {"name": "Dr Kashmir Clinic", "rating": "5.0", "detail": "Hospital", "location": "None", "open_at": "None", "phone": "None"}, {"name": "Dr Sandeep's The Dental Brace Clinic \u0921\u0949 \u0938\u0902\u0926\u0940\u092a \u0926\u093e \u0921\u0947\u0902\u091f\u0932 \u092c\u094d\u0930\u0947\u0938", "rating": "5.0", "detail": "Hospital", "location": "Mandi Dabwali", "open_at": "Open until 8:00 pm \u00b7", "phone": "096701 47860"}, {"name": "Krishan Bhardwaj", "rating": "5.0", "detail": "Educational consultant", "location": "Goriwala", "open_at": "None", "phone": "None"}, {"name": "Sarkari Hospital", "rating": "None", "detail": "Hospital", "location": "None", "open_at": "None", "phone": "None"}, {"name": "mahaveer ayurvedic clinic", "rating": "None", "detail": "Hospital", "location": "Raman", "open_at": "None", "phone": "None"}, {"name": "City Dental and Implant Centre", "rating": "4.8", "detail": "Pediatric dentist", "location": "Mandi Dabwali", "open_at": "Open until 8:00 pm \u00b7", "phone": "093555 05282"}, {"name": "Govt. High School Dhudianwali", "rating": "4.9", "detail": "School", "location": "None", "open_at": "None", "phone": "None"}, {"name": "Navdurga Beauty Parlour", "rating": "5.0", "detail": "Beauty Parlour", "location": "None", "open_at": "None", "phone": "None"}, {"name": "SWADESHIRAJ", "rating": "4.2", "detail": "E-commerce service", "location": "Keharwala", "open_at": "Open until 7:00 pm", "phone": "None"}, {"name": "Dall but house", "rating": "4.3", "detail": "Electronics store", "location": "None", "open_at": "None", "phone": "089299 11595"}, {"name": "DAYAL MOBILES", "rating": "3.7", "detail": "Cell phone accessory store", "location": "Goriwala", "open_at": "None", "phone": "None"}, {"name": "STATE BANK OF INDIA ATM", "rating": "4.8", "detail": "ATM", "location": "KALUANA", "open_at": "None", "phone": "None"}, {"name": "Dr. BB Chhabra", "rating": "None", "detail": "Hospital", "location": "Mandi Dabwali", "open_at": "None", "phone": "None"}, {"name": "Dr.S. K. Daabi", "rating": "5.0", "detail": "Hospital", "location": "Mandi Dabwali", "open_at": "Open until 6:00 pm", "phone": "None"}, {"name": "Shifco", "rating": "4.8", "detail": "Marriage Consultant", "location": "Bathinda", "open_at": "None", "phone": "094178 31031"}, {"name": "Hr 44 Wale Vally Ground", "rating": "None", "detail": "Doctor", "location": "Ellenabad", "open_at": "None", "phone": "None"}, {"name": "Pal Homeo Hospital & Research Center", "rating": "4.2", "detail": "Hospital", "location": "Mandi Dabwali", "open_at": "None", "phone": "094166 82080"}, {"name": "Grover health care", "rating": "5.0", "detail": "Hospital", "location": "Mandi Dabwali", "open_at": "None", "phone": "093551 18000"}, {"name": "Krishan Medicos", "rating": "4.3", "detail": "Medical Center", "location": "None", "open_at": "Open until 9:30 pm \u00b7", "phone": "098124 53330"}, {"name": "Sandhu Dental Clinic", "rating": "None", "detail": "Hospital", "location": "None", "open_at": "Closing soon: 5:00 pm", "phone": "None"}, {"name": "Dr Ashok Bansal", "rating": "None", "detail": "Doctor", "location": "Naurang", "open_at": "None", "phone": "099967 01668"}, {"name": "COMMUNITY HEALTH CENTRE,ODHAN", "rating": "3.6", "detail": "Government hospital", "location": "None", "open_at": "Opens at 9:00 am", "phone": "None"}, {"name": "Pahuja Dental Clinic", "rating": "5.0", "detail": "Hospital", "location": "None", "open_at": "None", "phone": "None"}, {"name": "HEALTH CENTER", "rating": "None", "detail": "Hospital", "location": "None", "open_at": "None", "phone": "None"}, {"name": "Dhaka hospital ODHAN", "rating": "5.0", "detail": "Hospital", "location": "None", "open_at": "None", "phone": "094660 01198"}, {"name": "\u0917\u0941\u0930\u0941\u0928\u093e\u0928\u0915 \u0939\u0921\u094d\u0921\u093f\u092f\u094b\u0902 \u0935 \u091c\u094b\u095c\u094b\u0902 \u0915\u093e \u0939\u0938\u094d\u092a\u0924\u093e\u0932", "rating": "None", "detail": "Hospital", "location": "None", "open_at": "Open until 6:00 pm", "phone": "None"}, {"name": "Animal health & Dog clinic", "rating": "5.0", "detail": "Dog day care center", "location": "None", "open_at": "None", "phone": "None"}, {"name": "Anand Dental Clinic", "rating": "None", "detail": "Hospital", "location": "Mandi Dabwali", "open_at": "None", "phone": "094162 58014"}, {"name": "Chopra Hospital", "rating": "4.8", "detail": "Hospital", "location": "None", "open_at": "Open until 8:30 pm \u00b7", "phone": "080595 88111"}, {"name": "Ashirwad Hospital", "rating": "5.0", "detail": "Hospital", "location": "Mandi Dabwali", "open_at": "Opens at 10:00 am \u00b7", "phone": "099159 40954"}, {"name": "Bansal Hospital", "rating": "3.7", "detail": "Hospital", "location": "Mandi Dabwali", "open_at": "None", "phone": "094666 00711"}, {"name": "Govt Hospital", "rating": "3.8", "detail": "Hospital", "location": "Mandi Dabwali", "open_at": "Opens at 8:00 am \u00b7", "phone": "0166 822 2053"}, {"name": "Singla Hospital", "rating": "3.0", "detail": "Hospital", "location": "None", "open_at": "None", "phone": "None"}, {"name": "99 Institute of Beauty & Wellness Salon-n-Spa", "rating": "5.0", "detail": "Educational institution", "location": "Bathinda", "open_at": "None", "phone": "070625 99000"}, {"name": "Eye Hospital", "rating": "4.0", "detail": "Hospital", "location": "Mandi Dabwali", "open_at": "None", "phone": "None"}, {"name": "Ashirwaad Hospital", "rating": "None", "detail": "Hospital", "location": "Mandi Dabwali", "open_at": "None", "phone": "None"}, {"name": "Chandsi Hospital", "rating": "None", "detail": "Hospital", "location": "Ellenabad", "open_at": "None", "phone": "094164 40369"}, {"name": "Vision Care Eye Hospital : Eye hospital in Dabwali | Eye Hospital in Sirsa", "rating": "5.0", "detail": "Hospital", "location": "None", "open_at": "Closing soon: 5:00 pm \u00b7", "phone": "070159 46247"}, {"name": "Aggarwal hospital", "rating": "5.0", "detail": "Hospital", "location": "None", "open_at": "None", "phone": "098720 15888"}, {"name": "Anand Dental Clinic Gole Bazar Mandi Dabwali", "rating": "None", "detail": "Hospital", "location": "New Delhi", "open_at": "Closing soon: 5:00 pm \u00b7", "phone": "094161 06421"}, {"name": "Miglani Homeo Clinic", "rating": "4.3", "detail": "Homeopath", "location": "Mandi Dabwali", "open_at": "None", "phone": "094168 48282"}, {"name": "Chohan physiotherepy cantar", "rating": "None", "detail": "Hospital", "location": "Ellenabad", "open_at": "None", "phone": "094672 88756"}, {"name": "Dr.P.K Aggarwal Hospital", "rating": "4.7", "detail": "Hospital", "location": "None", "open_at": "None", "phone": "None"}, {"name": "Gambhir Dental Clinic", "rating": "None", "detail": "Hospital", "location": "Chowki", "open_at": "None", "phone": "None"}, {"name": "Sandeep Kawilya", "rating": "None", "detail": "Hospital", "location": "None", "open_at": "None", "phone": "088242 34339"}, {"name": "Jyani Kalawati Hospital", "rating": "4.3", "detail": "Hospital", "location": "Mandi Dabwali", "open_at": "None", "phone": "None"}, {"name": "Anmol Eye Hospital", "rating": "5.0", "detail": "Eye care center", "location": "Sri Ganganagar", "open_at": "None", "phone": "0154 246 3909"}, {"name": "Rajendra Medicose", "rating": "None", "detail": "Hospital", "location": "None", "open_at": "None", "phone": "094162 58014"}, {"name": "Chopra Hospital", "rating": "4.8", "detail": "Hospital", "location": "None", "open_at": "None", "phone": "None"}, {"name": "Chopra Hospital", "rating": "None", "detail": "None", "location": "None", "open_at": "None", "phone": "None"}, {"name": "Chopra Hospital", "rating": "None", "detail": "None", "location": "None", "open_at": "None", "phone": "None"}, {"name": "Chopra Hospital", "rating": "None", "detail": "None", "location": "None", "open_at": "None", "phone": "None"}, {"name": "Chopra Hospital", "rating": "None", "detail": "None", "location": "None", "open_at": "None", "phone": "None"}, {"name": "Chopra Hospital", "rating": "None", "detail": "None", "location": "None", "open_at": "None", "phone": "None"}, {"name": "Chopra Hospital", "rating": "None", "detail": "None", "location": "None", "open_at": "None", "phone": "None"}, {"name": "Chopra Hospital", "rating": "None", "detail": "None", "location": "None", "open_at": "None", "phone": "None"}, {"name": "Chopra Hospital", "rating": "None", "detail": "None", "location": "None", "open_at": "None", "phone": "None"}, {"name": "Chopra Hospital", "rating": "None", "detail": "None", "location": "None", "open_at": "None", "phone": "None"}]}