{"pincode": "125102", "data": [{"name": "Lakshya Homoeopathic clinic", "rating": "4.8", "detail": "Medical clinic", "location": "None", "open_at": "Open until 8:00 pm \u00b7", "phone": "085299 85299"}, {"name": "Goyal Medicose", "rating": "5.0", "detail": "Medical clinic", "location": "None", "open_at": "Open until 8:45 pm", "phone": "None"}, {"name": "AMIT ARORA CLINIC", "rating": "5.0", "detail": "Medical clinic", "location": "Ellenabad", "open_at": "None", "phone": "098139 00102"}, {"name": "Bala ji Medcial Ellenabad", "rating": "1.0", "detail": "Medical clinic", "location": "None", "open_at": "None", "phone": "None"}, {"name": "Harikrishan", "rating": "3.0", "detail": "Medical clinic", "location": "Budhi Mari", "open_at": "None", "phone": "None"}, {"name": "Clinic", "rating": "5.0", "detail": "Pain control clinic", "location": "None", "open_at": "None", "phone": "None"}, {"name": "GARHWAL HOMEOPATHY CLINIC", "rating": "5.0", "detail": "Doctor", "location": "None", "open_at": "Open until 9:00 pm", "phone": "None"}, {"name": "City Dental Hospital", "rating": "5.0", "detail": "Dental clinic", "location": "Ellenabad", "open_at": "None", "phone": "089014 77637"}, {"name": "Arora Dental Hospital", "rating": "5.0", "detail": "Dental clinic", "location": "Ellenabad", "open_at": "None", "phone": "094160 46404"}, {"name": "SANDHU HOMOEOPATHIC CLINIC", "rating": "3.0", "detail": "Hospital", "location": "Ellenabad", "open_at": "Open until 8:00 pm \u00b7", "phone": "098126 16621"}, {"name": "Manda Medical Hall", "rating": "5.0", "detail": "Public medical center", "location": "Ellenabad", "open_at": "Open until 8:00 pm \u00b7", "phone": "094164 91513"}, {"name": "Shyam Medical Store", "rating": "5.0", "detail": "Child health care centre", "location": "None", "open_at": "Open until 7:50 pm", "phone": "None"}, {"name": "Gupta Dental Clinic", "rating": "2.0", "detail": "Dental clinic", "location": "None", "open_at": "Open until 6:00 pm \u00b7", "phone": "094163 12057"}, {"name": "Lakshya Homoeopathic clinic", "rating": "4.8", "detail": "Medical clinic", "location": "None", "open_at": "Open until 8:00 pm \u00b7", "phone": "085299 85299"}, {"name": "Goyal Medicose", "rating": "5.0", "detail": "Medical clinic", "location": "None", "open_at": "Open until 8:45 pm", "phone": "None"}, {"name": "AMIT ARORA CLINIC", "rating": "5.0", "detail": "Medical clinic", "location": "Ellenabad", "open_at": "None", "phone": "098139 00102"}, {"name": "Bala ji Medcial Ellenabad", "rating": "1.0", "detail": "Medical clinic", "location": "None", "open_at": "None", "phone": "None"}, {"name": "Harikrishan", "rating": "3.0", "detail": "Medical clinic", "location": "Budhi Mari", "open_at": "None", "phone": "None"}, {"name": "Clinic", "rating": "5.0", "detail": "Pain control clinic", "location": "None", "open_at": "None", "phone": "None"}, {"name": "GARHWAL HOMEOPATHY CLINIC", "rating": "None", "detail": "Medical clinic", "location": "Rania", "open_at": "None", "phone": "None"}, {"name": "Bhambhu Clinic", "rating": "None", "detail": "Medical clinic", "location": "Charanwasi", "open_at": "None", "phone": "None"}, {"name": "C.M.C. HOSPITAL", "rating": "None", "detail": "Hospital", "location": "None", "open_at": "None", "phone": "None"}, {"name": "Chohan physiotherepy cantar", "rating": "5.0", "detail": "Hospital", "location": "Ellenabad", "open_at": "None", "phone": "094672 88756"}, {"name": "Shri Ram G Optical And Eye Care Hospital", "rating": "4.8", "detail": "Eye care center", "location": "None", "open_at": "None", "phone": "098120 36937"}, {"name": "Anmol Eye Hospital", "rating": "5.0", "detail": "Hospital", "location": "None", "open_at": "None", "phone": "080593 13197"}, {"name": "Dr. Ramesh Pareek", "rating": "3.8", "detail": "Doctor", "location": "Ellenabad", "open_at": "Open until 9:00 pm \u00b7", "phone": "094135 36545"}, {"name": "Sachdeva Clinic", "rating": "4.5", "detail": "Hospital", "location": "Ellenabad", "open_at": "Open until 8:30 pm", "phone": "None"}, {"name": "Bhullar Clinic", "rating": "None", "detail": "Medical clinic", "location": "None", "open_at": "None", "phone": "None"}, {"name": "Sant Assa Singh G Virk Homeopathy clinic", "rating": "4.7", "detail": "Hospital", "location": "Ellenabad", "open_at": "Open until 6:00 pm", "phone": "None"}, {"name": "Saini Clinic", "rating": "5.0", "detail": "Medical clinic", "location": "Sant Nagar", "open_at": "Open until 7:00 pm \u00b7", "phone": "094162 89689"}, {"name": "Paras Tuteja Mental Club", "rating": "4.0", "detail": "Hospital", "location": "None", "open_at": "None", "phone": "None"}, {"name": "sant malsingh memorial homeopathic clinic", "rating": "None", "detail": "Hospital", "location": "Sant Nagar", "open_at": "None", "phone": "None"}, {"name": "Ellenabad", "rating": "5.0", "detail": "Hospital", "location": "None", "open_at": "None", "phone": "094163 88888"}, {"name": "Namdhari Clinic", "rating": "None", "detail": "Hospital", "location": "None", "open_at": "None", "phone": "None"}, {"name": "Anganwadi Centre", "rating": "None", "detail": "Child health care centre", "location": "None", "open_at": "None", "phone": "None"}, {"name": "JOSHI MEDICAL", "rating": "5.0", "detail": "Medical clinic", "location": "Jasana", "open_at": "None", "phone": "None"}, {"name": "MANIT MEDICAL STORE, CHARANWASI", "rating": "None", "detail": "Public medical center", "location": "None", "open_at": "None", "phone": "None"}, {"name": "Modern Lab.& X-ray Centre", "rating": "5.0", "detail": "Diagnostic center", "location": "Rania", "open_at": "Open until 8:00 pm \u00b7", "phone": "094163 51733"}, {"name": "Dabwali Hospital", "rating": "None", "detail": "Hospital", "location": "Ellenabad", "open_at": "None", "phone": "094163 79886"}, {"name": "Singla Hospital", "rating": "None", "detail": "Hospital", "location": "None", "open_at": "None", "phone": "None"}, {"name": "Guru Kripa Medical Store", "rating": "3.0", "detail": "Medical group", "location": "None", "open_at": "None", "phone": "None"}, {"name": "Sihag Children Hospital", "rating": "None", "detail": "Hospital", "location": "Ellenabad", "open_at": "None", "phone": "096717 89892"}, {"name": "Shri gurunank medical store", "rating": "None", "detail": "Medical clinic", "location": "Silwala Khurd", "open_at": "None", "phone": "None"}, {"name": "Doctor khajan Hospital", "rating": "5.0", "detail": "Medical clinic", "location": "None", "open_at": "None", "phone": "None"}, {"name": "Veterinary Hosiptal", "rating": "None", "detail": "Hospital", "location": "Unnamed Road", "open_at": "None", "phone": "None"}, {"name": "Chandsi Hospital", "rating": "None", "detail": "Hospital", "location": "Ellenabad", "open_at": "None", "phone": "094164 40369"}, {"name": "Khurana Hospital", "rating": "4.5", "detail": "Hospital", "location": "None", "open_at": "None", "phone": "None"}, {"name": "sant malsingh memorial homeopathic clinic", "rating": "", "detail": "Medical group", "location": "Bani", "open_at": "None", "phone": "None"}, {"name": "Dr. Jagdish Rai Dall", "rating": "5.0", "detail": "Medical clinic", "location": "None", "open_at": "Open until 8:00 pm", "phone": "None"}, {"name": "Dr.Surjeet Clinic", "rating": "5.0", "detail": "Hospital", "location": "Rania", "open_at": "None", "phone": "None"}, {"name": "City eye and surgical hospital", "rating": "None", "detail": "Eye care center", "location": "Chak Rajasar", "open_at": "None", "phone": "None"}, {"name": "Vijay Dental Clinic", "rating": "None", "detail": "Dentist", "location": "Ellenabad", "open_at": "None", "phone": "098964 85355"}, {"name": "sandhu dental clinic", "rating": "4.8", "detail": "Dental clinic", "location": "Darbi", "open_at": "Open until 7:00 am", "phone": "None"}, {"name": "Dr. Sukha Singh Clinic", "rating": "5.0", "detail": "Medical clinic", "location": "None", "open_at": "Open until 6:00 pm", "phone": "None"}, {"name": "CITY EYE CARE & OPTICALS", "rating": "None", "detail": "Optician", "location": "Ellenabad", "open_at": "None", "phone": "099968 22897"}, {"name": "SONU OPTICAL & LIBRARY", "rating": "None", "detail": "Eye care center", "location": "Rawatsar", "open_at": "Open until 8:30 pm", "phone": "None"}, {"name": "Chandora Dental Hospital", "rating": "4.8", "detail": "Hospital", "location": "Ellenabad", "open_at": "Open until 8:00 pm", "phone": "None"}, {"name": "Hanuman medical", "rating": "3.0", "detail": "X-ray lab", "location": "Padam Pura", "open_at": "None", "phone": "None"}, {"name": "\u091c\u0928 \u0914\u0937\u0927\u0940 \u0915\u0947\u0902\u0926\u094d\u0930", "rating": "4.0", "detail": "Public medical center", "location": "None", "open_at": "Open until 9:00 pm \u00b7", "phone": "090245 55665"}, {"name": "\u091a\u094b\u092e\u093e\u0932 \u092e\u0947\u0921\u093f\u0915\u0932", "rating": "1.0", "detail": "Medical diagnostic imaging center", "location": "Nohar", "open_at": "Open until 8:00 pm", "phone": "None"}, {"name": "Bathinda Nursing Home", "rating": "5.0", "detail": "Medical clinic", "location": "None", "open_at": "Open until 8:00 pm \u00b7", "phone": "094145 07910"}, {"name": "Singla Nursing and Maternity Home", "rating": "3.3", "detail": "Hospital", "location": "Ellenabad", "open_at": "None", "phone": "None"}, {"name": "Sindhra Homeopathic Clinic", "rating": "3.7", "detail": "Hospital", "location": "None", "open_at": "None", "phone": "None"}, {"name": "Chaudhary Eye and ENT Hospital", "rating": "4.8", "detail": "Hospital", "location": "Ellenabad", "open_at": "None", "phone": "0169 822 2918"}, {"name": "KAMBOJ MEDICINE CENTER", "rating": "5.0", "detail": "Sports medicine clinic", "location": "Mangala", "open_at": "None", "phone": "None"}, {"name": "sugam medicous", "rating": "5.0", "detail": "FMCG Goods Wholesaler", "location": "Ellenabad", "open_at": "None", "phone": "None"}, {"name": "Kamlesh Medical Store", "rating": "5.0", "detail": "Medical group", "location": "None", "open_at": "None", "phone": "None"}, {"name": "Om Shanti Accupresser Health Care Centre", "rating": "5.0", "detail": "Occupational health service", "location": "None", "open_at": "Open until 8:00 pm \u00b7", "phone": "090015 11151"}, {"name": "Shri Ram Dental Hospital", "rating": "5.0", "detail": "Dental clinic", "location": "None", "open_at": "Open until 8:00 pm", "phone": "None"}, {"name": "Bhambhu Hospital", "rating": "5.0", "detail": "Hospital", "location": "Talwara Jheel", "open_at": "None", "phone": "094137 77691"}, {"name": "ok Diagnostic Rawatsar", "rating": "4.8", "detail": "X-ray lab", "location": "None", "open_at": "None", "phone": "094132 64245"}, {"name": "Bholyan Sadan", "rating": "None", "detail": "Acupuncture clinic", "location": "None", "open_at": "None", "phone": "097294 32516"}, {"name": "celebration marriage palace", "rating": "5.0", "detail": "Marriage Consultant", "location": "None", "open_at": "None", "phone": "093142 78411"}, {"name": "\u0936\u094d\u0930\u0940 \u092c\u093e\u0932\u093e\u091c\u0940 \u0921\u093f\u091c\u093f\u091f\u0932 \u0932\u0948\u092c \u090f\u0902\u0921 \u090f\u0915\u094d\u0938-\u0930\u0947", "rating": "4.6", "detail": "X-ray lab", "location": "Nohar", "open_at": "None", "phone": "089053 20227"}, {"name": "Vijay dental hospital", "rating": "3.0", "detail": "Dentist", "location": "Ellenabad", "open_at": "Open until 8:00 pm", "phone": "None"}, {"name": "Choudhary Dental Clinic", "rating": "5.0", "detail": "Dental clinic", "location": "Rawatsar", "open_at": "None", "phone": "None"}, {"name": "Mamta clinic", "rating": "4.8", "detail": "Medical clinic", "location": "None", "open_at": "None", "phone": "None"}, {"name": "RAJENDER JODHPURIA", "rating": "1.0", "detail": "Psychologist", "location": "None", "open_at": "None", "phone": "080537 70007"}, {"name": "Govt. Health clinic", "rating": "None", "detail": "Hospital", "location": "None", "open_at": "None", "phone": "None"}, {"name": "Hair Saloon Kamrani", "rating": "3.5", "detail": "Hair transplantation clinic", "location": "None", "open_at": "None", "phone": "None"}, {"name": "SATYAM DIAGNOSTIC CENTER RAWTSER", "rating": "None", "detail": "Diagnostic center", "location": "Rawatsar", "open_at": "None", "phone": "None"}, {"name": "Daya Dental Clinic", "rating": "4.5", "detail": "Dental clinic", "location": "None", "open_at": "None", "phone": "None"}, {"name": "JHORAR CLINIC AND MEDICINE CENTER", "rating": "5.0", "detail": "Hospital", "location": "Bani", "open_at": "Open until 8:00 pm", "phone": "None"}, {"name": "Granton Sales", "rating": "None", "detail": "FMCG Goods Wholesaler", "location": "Ellenabad", "open_at": "Open until 8:00 pm", "phone": "None"}, {"name": "Suthar Optical", "rating": "5.0", "detail": "Optician", "location": "None", "open_at": "Open until 8:00 pm \u00b7", "phone": "090509 00999"}, {"name": "Jan Aushadhi Store", "rating": "5.0", "detail": "Pharmacy", "location": "Ellenabad", "open_at": "Open until 9:00 pm", "phone": "None"}, {"name": "Dr Kashmir Clinic", "rating": "4.2", "detail": "Hospital", "location": "None", "open_at": "None", "phone": "None"}, {"name": "Oriental Insurance", "rating": "None", "detail": "Insurance company", "location": "None", "open_at": "Open until 5:30 pm \u00b7", "phone": "0169 822 2558"}, {"name": "Aashirwad Dental Clinic", "rating": "4.1", "detail": "Hospital", "location": "Rania", "open_at": "Open until 7:30 pm", "phone": "None"}, {"name": "Haryana College of Nursing, Sirsa", "rating": "4.3", "detail": "Nursing school", "location": "Ellenabad", "open_at": "None", "phone": "0169 822 2021"}, {"name": "Modern Beauty Parlour", "rating": "5.0", "detail": "Beauty Parlour", "location": "None", "open_at": "None", "phone": "None"}, {"name": "Saheli beauty parlour", "rating": "4.2", "detail": "Beauty Parlour", "location": "Ellenabad", "open_at": "None", "phone": "None"}, {"name": "Maruti Suzuki Service, Ellenabad", "rating": "4.4", "detail": "Car Service Station", "location": "Mamera", "open_at": "Open until 6:00 pm \u00b7", "phone": "0169 822 1133"}, {"name": "Nachiketan Public School", "rating": "3.0", "detail": "School", "location": "Ellenabad", "open_at": "None", "phone": "080599 49008"}, {"name": "Apex College of Education, Mameran Road, Ellenabad", "rating": "3.4", "detail": "College", "location": "None", "open_at": "None", "phone": "094165 95777"}, {"name": "Central Bank of India", "rating": "5.0", "detail": "Bank", "location": "Ellenabad", "open_at": "Closing soon: 5:00 pm", "phone": "None"}, {"name": "Haryana Group Of Institutions", "rating": "None", "detail": "Private College", "location": "Ellenabad", "open_at": "None", "phone": "098122 29999"}, {"name": "Dashmesh Medical Hall", "rating": "3.7", "detail": "Pharmacy", "location": "None", "open_at": "Open until 9:00 pm \u00b7", "phone": "098137 76705"}, {"name": "Electrohomiopathy Clinic", "rating": "4.3", "detail": "Private hospital", "location": "None", "open_at": "Open until 6:00 pm \u00b7", "phone": "088248 88942"}, {"name": "gill agri clinic and agri business centre", "rating": "3.0", "detail": "Shopping mall", "location": "Talwara Jheel", "open_at": "None", "phone": "None"}, {"name": "Space Architecture & Construction Group", "rating": "3.7", "detail": "Corporate office", "location": "None", "open_at": "None", "phone": "097289 05772"}, {"name": "HR 44 Royal Fashion Point", "rating": "4.9", "detail": "Men's clothing store", "location": "Ellenabad", "open_at": "None", "phone": "None"}, {"name": "HDB FINANACIAL SERVICES LTD,MAMERA ROAD ELLENABAD", "rating": "4.0", "detail": "Financial institution", "location": "Ellenabad", "open_at": "Open until 6:00 pm \u00b7", "phone": "098132 56686"}, {"name": "SPS TAX CONSULTANCY SERVICES", "rating": "4.6", "detail": "Corporate office", "location": "Ellenabad", "open_at": "None", "phone": "None"}, {"name": "Dr Sohan", "rating": "5.0", "detail": "Hospital", "location": "None", "open_at": "None", "phone": "None"}, {"name": "RCM \u0905\u092a\u0928\u0940 \u0926\u0941\u0915\u093e\u0928 \u0905\u092a\u0928\u094b \u0915\u0947 \u0932\u093f\u090f", "rating": "5.0", "detail": "Grocery store", "location": "Ellenabad", "open_at": "Open until 7:00 pm", "phone": "None"}, {"name": "Canara Bank Ellenabad", "rating": "1.0", "detail": "Bank", "location": "None", "open_at": "None", "phone": "None"}, {"name": "Dr sohan kamboj", "rating": "5.0", "detail": "Hospital", "location": "None", "open_at": "None", "phone": "098132 38197"}, {"name": "Nivedita Senior Secondary School", "rating": "4.0", "detail": "School", "location": "Sirsa", "open_at": "Closing soon: 5:00 pm \u00b7", "phone": "094664 58370"}, {"name": "Janta Girls College", "rating": "4.7", "detail": "College", "location": "None", "open_at": "None", "phone": "None"}, {"name": "Chaudhary Maniram Jhorar College", "rating": "4.6", "detail": "College", "location": "Ellenabad", "open_at": "None", "phone": "0169 822 2904"}, {"name": "State Bank of India", "rating": "4.0", "detail": "Public Sector Bank", "location": "Ellenabad", "open_at": "None", "phone": "None"}, {"name": "Ch R R Memorial College of Education", "rating": "3.6", "detail": "College", "location": "Ellenabad", "open_at": "None", "phone": "098967 60405"}, {"name": "Punjab & Sind Bank", "rating": "2.0", "detail": "Public Sector Bank", "location": "None", "open_at": "Opens at 10:00 am", "phone": "None"}, {"name": "Raj Wooden Craft", "rating": "5.0", "detail": "Wood Working Class", "location": "None", "open_at": "None", "phone": "094162 57508"}, {"name": "Bhawani Auto", "rating": "4.0", "detail": "Two Wheeler Dealer", "location": "Ellenabad", "open_at": "None", "phone": "093155 44668"}, {"name": "Charu cosmetic & gift house", "rating": "None", "detail": "Cosmetics store", "location": "Ellenabad", "open_at": "None", "phone": "None"}, {"name": "Dr. Monica's Advanced Dental Care - Cosmetic Dentistry/Best Dental Implants in Sirsa", "rating": "4.9", "detail": "Dental clinic", "location": "Sirsa", "open_at": "Open until 8:00 pm \u00b7", "phone": "099929 15000"}, {"name": "Mittal Iron Store", "rating": "None", "detail": "Iron & Steel Store", "location": "None", "open_at": "None", "phone": "None"}, {"name": "Punjab and Sind Bank ATM", "rating": "None", "detail": "ATM", "location": "Ellenabad", "open_at": "None", "phone": "None"}, {"name": "Ladha Hotel And resort", "rating": "4.3", "detail": "Hotel", "location": "None", "open_at": "None", "phone": "097289 05772"}, {"name": "HR 44 Royal Fashion Point", "rating": "4.9", "detail": "Men's clothing store", "location": "Ellenabad", "open_at": "None", "phone": "None"}, {"name": "HDB FINANACIAL SERVICES LTD,MAMERA ROAD ELLENABAD", "rating": "4.0", "detail": "Financial institution", "location": "Ellenabad", "open_at": "Open until 6:00 pm \u00b7", "phone": "098132 56686"}, {"name": "SPS TAX CONSULTANCY SERVICES", "rating": "4.6", "detail": "Corporate office", "location": "Ellenabad", "open_at": "Open until 8:30 pm \u00b7", "phone": "070277 70577"}, {"name": "HDFC Bank", "rating": "3.8", "detail": "Bank", "location": "Ellenabad", "open_at": "Opens at 9:30 am \u00b7", "phone": "075739 19585"}, {"name": "Sarvpalli Public School", "rating": "4.8", "detail": "School", "location": "Ellenabad", "open_at": "None", "phone": "094162 84691"}, {"name": "Government Girls Sr. Sec. School", "rating": "4.0", "detail": "School", "location": "None", "open_at": "None", "phone": "090504 65101"}, {"name": "Apollo Tyres - G S Tyre Workshop", "rating": "5.0", "detail": "Tire shop", "location": "Ellenabad", "open_at": "Open until 8:00 pm \u00b7", "phone": "093150 00400"}, {"name": "Government Primary Health Center", "rating": "5.0", "detail": "Hospital", "location": "Sirsa", "open_at": "None", "phone": "099969 32389"}, {"name": "Royal Pizza King", "rating": "4.6", "detail": "Pizza", "location": "Ellenabad", "open_at": "Open until 10:30 pm \u00b7", "phone": "070279 12340"}, {"name": "Care & Cure Reflexology & Accupressure Centre", "rating": "None", "detail": "Acupuncture clinic", "location": "Sirsa", "open_at": "Open until 8:00 pm \u00b7", "phone": "097288 85533"}, {"name": "Arora Dental Care Hospital", "rating": "4.5", "detail": "Hospital", "location": "Rania", "open_at": "Open until 8:00 pm \u00b7", "phone": "094163 09444"}, {"name": "Jan Aushadhi Store", "rating": "4.7", "detail": "Public medical center", "location": "Sirsa", "open_at": "None", "phone": "0166 622 1183"}, {"name": "Raj Medical Store", "rating": "None", "detail": "Medical Center", "location": "Masitawali Head", "open_at": "None", "phone": "None"}, {"name": "delhi hospital", "rating": "3.9", "detail": "Dermatologist", "location": "Nohar", "open_at": "None", "phone": "01555 220 122"}, {"name": "Dr.Shobhit's Dental Clinic Rawatsar", "rating": "5.0", "detail": "Hospital", "location": "None", "open_at": "None", "phone": "None"}, {"name": "BHADU DENTAL CLINIC", "rating": "5.0", "detail": "Hospital", "location": "Rawatsar", "open_at": "Open until 7:00 pm", "phone": "None"}, {"name": "Nestle Dairy Chilkani Dhab", "rating": "None", "detail": "Dairy", "location": "None", "open_at": "None", "phone": "None"}, {"name": "HP PETROL PUMP - SOURABH FLG STN", "rating": "1.0", "detail": "Petrol Pump", "location": "Hissar", "open_at": "Open until 11:00 pm \u00b7", "phone": "094162 86263"}, {"name": "Jaquar Authorised Dealer, Aggarwal Sanitation", "rating": "5.0", "detail": "Bathroom supply store", "location": "Mamera", "open_at": "Open until 8:00 pm \u00b7", "phone": "0169 822 0251"}, {"name": "Sir Chhotu Ram Jat College of Education", "rating": "4.4", "detail": "College", "location": "Ellenabad", "open_at": "None", "phone": "0169 822 0237"}, {"name": "Sir Chhotu Ram Jat Sr Sec School", "rating": "4.3", "detail": "School", "location": "Ellenabad", "open_at": "None", "phone": "0169 822 2537"}, {"name": "\u0905\u0930\u0928\u093f\u0915\u093e \u0915\u0948\u091f\u0930\u094d\u0938 (Arnika Catters)", "rating": "5.0", "detail": "Caterer", "location": "Ellenabad", "open_at": "None", "phone": "None"}, {"name": "Jammu Homoeo Clinic", "rating": "5.0", "detail": "Homeopathic pharmacy", "location": "Tibbi", "open_at": "Open until 8:00 pm \u00b7", "phone": "094136 14880"}, {"name": "Dhaliwal Residence", "rating": "None", "detail": "Hospital", "location": "None", "open_at": "None", "phone": "094611 66431"}, {"name": "Chugh dental care", "rating": "5.0", "detail": "Hospital", "location": "None", "open_at": "Open until 7:00 pm \u00b7", "phone": "094145 07782"}, {"name": "Soni hospital,Nohar", "rating": "4.7", "detail": "Hospital", "location": "Nohar", "open_at": "None", "phone": "063776 11844"}, {"name": "Rana diagnostic Lab &Lal path lab collection center", "rating": "3.3", "detail": "Laboratory", "location": "Sant Nagar", "open_at": "None", "phone": "098967 13401"}, {"name": "Active Physiotherapy center Rawtsar", "rating": "4.7", "detail": "Hospital", "location": "None", "open_at": "None", "phone": "096368 06399"}, {"name": "B.S Motars,", "rating": "None", "detail": "Hospital", "location": "Rawatsar", "open_at": "None", "phone": "None"}, {"name": "Thirani Government Hospital, Nohar", "rating": "4.0", "detail": "Government hospital", "location": "Nohar", "open_at": "None", "phone": "01555 220 022"}, {"name": "BCMO OFFICE RAWATSAR", "rating": "None", "detail": "Hospital", "location": "None", "open_at": "None", "phone": "None"}, {"name": "Bombay Skin Hospital", "rating": "4.7", "detail": "Hospital", "location": "None", "open_at": "Open until 7:00 pm", "phone": "None"}, {"name": "Nehra Hospital", "rating": "5.0", "detail": "Hospital", "location": "None", "open_at": "None", "phone": "None"}, {"name": "\u0930\u093e\u091c\u0915\u0940\u092f \u0906\u092f\u0941\u0930\u094d\u0935\u0947\u0926\u093f\u0915 \u0905\u0938\u094d\u092a\u0924\u093e\u0932", "rating": "4.0", "detail": "Government hospital", "location": "None", "open_at": "Open until 6:00 pm", "phone": "None"}, {"name": "Trauma Centre, Rawatsar", "rating": "4.7", "detail": "Government hospital", "location": "None", "open_at": "None", "phone": "None"}, {"name": "Chest Specialist Hanumangarh", "rating": "5.0", "detail": "Pulmonologist", "location": "Hanumangarh", "open_at": "None", "phone": "None"}, {"name": "delhi wala dental clinic", "rating": "None", "detail": "Dental laboratory", "location": "Rania", "open_at": "None", "phone": "None"}, {"name": "JANTA HOSPITAL", "rating": "5.0", "detail": "Hospital", "location": "Mallekan", "open_at": "None", "phone": "097282 09770"}, {"name": "Soni dental clinic", "rating": "None", "detail": "Hospital", "location": "Mangala", "open_at": "None", "phone": "None"}, {"name": "Gill Clinic", "rating": "None", "detail": "Pharmacy", "location": "Tibbi", "open_at": "None", "phone": "None"}, {"name": "Veterinary Hospital", "rating": "4.0", "detail": "Hospital", "location": "None", "open_at": "None", "phone": "None"}, {"name": "National Dental Clinic", "rating": "None", "detail": "None", "location": "None", "open_at": "None", "phone": "None"}, {"name": "National Dental Clinic", "rating": "None", "detail": "None", "location": "None", "open_at": "None", "phone": "None"}, {"name": "National Dental Clinic", "rating": "None", "detail": "None", "location": "None", "open_at": "None", "phone": "None"}, {"name": "National Dental Clinic", "rating": "None", "detail": "None", "location": "None", "open_at": "None", "phone": "None"}, {"name": "National Dental Clinic", "rating": "None", "detail": "None", "location": "None", "open_at": "None", "phone": "None"}, {"name": "National Dental Clinic", "rating": "None", "detail": "None", "location": "None", "open_at": "None", "phone": "None"}, {"name": "National Dental Clinic", "rating": "None", "detail": "None", "location": "None", "open_at": "None", "phone": "None"}, {"name": "National Dental Clinic", "rating": "None", "detail": "None", "location": "None", "open_at": "None", "phone": "None"}, {"name": "National Dental Clinic", "rating": "None", "detail": "None", "location": "None", "open_at": "None", "phone": "None"}, {"name": "National Dental Clinic", "rating": "None", "detail": "None", "location": "None", "open_at": "None", "phone": "None"}, {"name": "National Dental Clinic", "rating": "None", "detail": "None", "location": "None", "open_at": "None", "phone": "None"}, {"name": "National Dental Clinic", "rating": "None", "detail": "None", "location": "None", "open_at": "None", "phone": "None"}, {"name": "National Dental Clinic", "rating": "None", "detail": "None", "location": "None", "open_at": "None", "phone": "None"}, {"name": "National Dental Clinic", "rating": "None", "detail": "None", "location": "None", "open_at": "None", "phone": "None"}, {"name": "National Dental Clinic", "rating": "None", "detail": "None", "location": "None", "open_at": "None", "phone": "None"}]}